[{"type":"medium_airport","name":"Aleknagik \/ New Airport","lat":59.2826004028,"lon":-158.617996216},{"type":"medium_airport","name":"Sas Al Nakheel Air Base","lat":24.44128,"lon":54.51696},{"type":"large_airport","name":"Honiara International Airport","lat":-9.428,"lon":160.054993},{"type":"medium_airport","name":"Munda Airport","lat":-8.32797,"lon":157.263},{"type":"medium_airport","name":"Nauru International Airport","lat":-0.547458,"lon":166.919006},{"type":"medium_airport","name":"Boulder Clay Runway","lat":-74.739373,"lon":164.03539},{"type":"medium_airport","name":"Aeroestación Yabotí","lat":-27.180308,"lon":-54.107368},{"type":"medium_airport","name":"Concordia Skyway","lat":-75.103278,"lon":123.35825},{"type":"medium_airport","name":"Vostok Skiway","lat":-78.466139,"lon":106.84825},{"type":"medium_airport","name":"Wolf's Fang Runway","lat":-71.517,"lon":8.8},{"type":"medium_airport","name":"Alxa Left Banner Bayanhot Airport","lat":38.748317,"lon":105.58416},{"type":"medium_airport","name":"Baimuru Airport","lat":-7.496955,"lon":144.821756},{"type":"medium_airport","name":"Buka Airport","lat":-5.422299,"lon":154.672698},{"type":"medium_airport","name":"Balimo Airport","lat":-8.0500001907,"lon":142.932998657},{"type":"medium_airport","name":"Chimbu Airport","lat":-6.0242900848,"lon":144.970993042},{"type":"medium_airport","name":"Daru Airport","lat":-9.08676,"lon":143.207993},{"type":"medium_airport","name":"Goroka Airport","lat":-6.0816898346,"lon":145.391998291},{"type":"medium_airport","name":"Gurney Airport","lat":-10.3114995956,"lon":150.333999634},{"type":"medium_airport","name":"Girua Airport","lat":-8.8045396805,"lon":148.309005737},{"type":"medium_airport","name":"Hoskins Airport","lat":-5.463846,"lon":150.407327},{"type":"medium_airport","name":"Kerema Airport","lat":-7.9636101723,"lon":145.770996094},{"type":"medium_airport","name":"Kavieng Airport","lat":-2.5794000626,"lon":150.807998657},{"type":"medium_airport","name":"Madang Airport","lat":-5.2070798874,"lon":145.789001465},{"type":"medium_airport","name":"Mount Hagen Kagamuga Airport","lat":-5.828212,"lon":144.299412},{"type":"medium_airport","name":"Mendi Airport","lat":-6.14774,"lon":143.656998},{"type":"medium_airport","name":"Momote Airport","lat":-2.06189,"lon":147.423996},{"type":"medium_airport","name":"Nadzab Airport","lat":-6.569803,"lon":146.725977},{"type":"large_airport","name":"Port Moresby Jacksons International Airport","lat":-9.4433803558,"lon":147.2200012207},{"type":"medium_airport","name":"Tokua Airport","lat":-4.34046,"lon":152.380005},{"type":"medium_airport","name":"Vanimo Airport","lat":-2.6926,"lon":141.3028},{"type":"medium_airport","name":"Wapenamanda Airport","lat":-5.635293,"lon":143.892231},{"type":"medium_airport","name":"Wewak International Airport","lat":-3.5838301182,"lon":143.669006348},{"type":"medium_airport","name":"Zabrat Airport","lat":40.494884,"lon":49.977065},{"type":"medium_airport","name":"Sitalchay Airbase","lat":40.807313,"lon":49.431481},{"type":"medium_airport","name":"Qizilagach Air Base","lat":39.006162,"lon":48.806312},{"type":"medium_airport","name":"Benguera Island Airport","lat":-21.8533,"lon":35.438301},{"type":"medium_airport","name":"Bezmer Air Base","lat":42.454899,"lon":26.3522},{"type":"medium_airport","name":"Aasiaat Airport","lat":68.721802,"lon":-52.784698},{"type":"medium_airport","name":"Narsarsuaq Airport","lat":61.1605,"lon":-45.425999},{"type":"medium_airport","name":"Nuuk Airport","lat":64.191066,"lon":-51.67914},{"type":"medium_airport","name":"Ilulissat Airport","lat":69.243202,"lon":-51.057098},{"type":"medium_airport","name":"Kulusuk Airport","lat":65.573601,"lon":-37.1236},{"type":"medium_airport","name":"Kangerlussuaq Airport","lat":67.010446,"lon":-50.715294},{"type":"medium_airport","name":"Sisimiut Airport","lat":66.951302,"lon":-53.729301},{"type":"medium_airport","name":"Pituffik Space Base","lat":76.531197,"lon":-68.703201},{"type":"medium_airport","name":"Akureyri Airport","lat":65.656573,"lon":-18.072018},{"type":"medium_airport","name":"Egilsstaðir Airport","lat":65.2833023071,"lon":-14.4013996124},{"type":"medium_airport","name":"Hornafjörður Airport","lat":64.295601,"lon":-15.2272},{"type":"medium_airport","name":"Húsavík Airport","lat":65.952301,"lon":-17.426001},{"type":"medium_airport","name":"Ísafjörður Airport","lat":66.058098,"lon":-23.1353},{"type":"large_airport","name":"Keflavik International Airport","lat":63.985001,"lon":-22.6056},{"type":"medium_airport","name":"Reykjavík Domestic Airport","lat":64.128732,"lon":-21.93759},{"type":"medium_airport","name":"Siglufjörður Airport","lat":66.137847,"lon":-18.908157},{"type":"medium_airport","name":"Vestmannaeyjar Airport","lat":63.4243011475,"lon":-20.2789001465},{"type":"medium_airport","name":"Priština Adem Jashari International Airport","lat":42.5728,"lon":21.035801},{"type":"medium_airport","name":"Glauber de Andrade Rocha Airport","lat":-14.907885,"lon":-40.914804},{"type":"medium_airport","name":"Russas - João de Deus Regional Airport","lat":-4.94727,"lon":-38.008202},{"type":"medium_airport","name":"Betong International Airport","lat":5.79,"lon":101.15},{"type":"medium_airport","name":"Orsha Airport - Balbasovo Air Base","lat":54.439999,"lon":30.2967},{"type":"medium_airport","name":"Osovtsy Air Base","lat":52.556999,"lon":24.884001},{"type":"medium_airport","name":"Caye Caulker Airport","lat":17.735015,"lon":-88.032862},{"type":"medium_airport","name":"Caye Chapel Airport","lat":17.683792,"lon":-88.044985},{"type":"medium_airport","name":"Corozal Airport","lat":18.3822,"lon":-88.411903},{"type":"medium_airport","name":"Dangriga Airport","lat":16.98251,"lon":-88.230988},{"type":"medium_airport","name":"Punta Gorda Airport","lat":16.1024,"lon":-88.808296},{"type":"medium_airport","name":"Sartaneja Airport","lat":18.3561,"lon":-88.130798},{"type":"medium_airport","name":"John Greif II Airport","lat":17.9139,"lon":-87.9711},{"type":"medium_airport","name":"Sir Barry Bowen Municipal Airport","lat":17.517239,"lon":-88.195775},{"type":"medium_airport","name":"Bazaruto Island Airport","lat":-21.5411,"lon":35.4729},{"type":"large_airport","name":"(Duplicate)Toronto Lester B. Pearson International Airport","lat":43.680585,"lon":-79.611841},{"type":"medium_airport","name":"Anahim Lake Airport","lat":52.451501,"lon":-125.303776},{"type":"medium_airport","name":"Qualicum Beach Airport","lat":49.337456,"lon":-124.393086},{"type":"medium_airport","name":"Cache Creek-Ashcroft Regional Airport","lat":50.775258,"lon":-121.321314},{"type":"medium_airport","name":"Bella Bella (Campbell Island) Airport","lat":52.185001,"lon":-128.156994},{"type":"medium_airport","name":"Boma Lukandu International Airport","lat":-5.80543,"lon":12.99582},{"type":"medium_airport","name":"Laohutun Air Base","lat":39.669998,"lon":121.765999},{"type":"medium_airport","name":"Pulandian Air Base","lat":39.450901,"lon":122.017998},{"type":"medium_airport","name":"Beijing Shahezhen Air Base","lat":40.1491661072,"lon":116.3213882446},{"type":"medium_airport","name":"Beijing Tongxian Air Base","lat":39.8111114502,"lon":116.7083358765},{"type":"medium_airport","name":"Fengning Air Base","lat":41.260799408,"lon":116.6179962158},{"type":"medium_airport","name":"Hohhot Bikeqi Air Base","lat":40.737015,"lon":111.229749},{"type":"medium_airport","name":"Huairen Air Base","lat":39.717499,"lon":113.142998},{"type":"medium_airport","name":"Liangxiangzhen Air Base","lat":39.757801,"lon":116.125999},{"type":"medium_airport","name":"Tangguantun Air Base","lat":38.781101,"lon":117.068001},{"type":"medium_airport","name":"Wenshui Air Base","lat":37.407799,"lon":111.966003},{"type":"medium_airport","name":"Yangcun Air Base","lat":39.373298645,"lon":117.0950012207},{"type":"medium_airport","name":"Yongning Air Base","lat":40.5031013489,"lon":116.108001709},{"type":"medium_airport","name":"Tangshan Zunhua Air Base","lat":40.102501,"lon":117.887001},{"type":"medium_airport","name":"Chengdu Huangtianba Air Base","lat":30.705299,"lon":103.949997},{"type":"medium_airport","name":"Chongqing Baishiyi Air Base","lat":29.4953,"lon":106.359001},{"type":"medium_airport","name":"Luliang Air Base","lat":24.988192,"lon":103.642833},{"type":"medium_airport","name":"Honghe Mengzi Airport \/ Mengzi Air Base","lat":23.3953,"lon":103.334},{"type":"medium_airport","name":"Qionglai Air Base","lat":30.49099,"lon":103.466139},{"type":"medium_airport","name":"Wenshan Air Base","lat":23.7155990601,"lon":103.827003479},{"type":"medium_airport","name":"Xiangyun Midu Air Base","lat":25.445299,"lon":100.735001},{"type":"medium_airport","name":"Baihe Ningming Air Base","lat":22.120481,"lon":107.125046},{"type":"medium_airport","name":"Changsha Datuopu Airport \/ Changsha Air Base","lat":28.068522,"lon":112.957306},{"type":"medium_airport","name":"Dangyang Air Base","lat":30.798599,"lon":111.809998},{"type":"medium_airport","name":"Foluo Northeast Air Base","lat":18.6922,"lon":109.161003},{"type":"medium_airport","name":"Guiping Mengxu Air Base","lat":23.330799,"lon":110.009003},{"type":"medium_airport","name":"Jialaishi Air Base","lat":19.697201,"lon":109.725998},{"type":"medium_airport","name":"Leiyang Air Base","lat":26.5872001648,"lon":112.891998291},{"type":"medium_airport","name":"Lingshui Air Base","lat":18.4944,"lon":109.987999},{"type":"medium_airport","name":"Shangqiu Air Base","lat":34.449507,"lon":115.459261},{"type":"medium_airport","name":"Zhengzhou Air Base","lat":34.86125,"lon":113.729631},{"type":"medium_airport","name":"Shaoguan Danxia Airport","lat":24.9786,"lon":113.420998},{"type":"medium_airport","name":"Suixi Air Base","lat":21.3958,"lon":110.199997},{"type":"medium_airport","name":"Jinggangshan Airport","lat":26.856899,"lon":114.737},{"type":"medium_airport","name":"Guodu Air Base","lat":36.000428,"lon":117.625833},{"type":"medium_airport","name":"Xiaogan Air Base","lat":30.95359,"lon":113.911774},{"type":"medium_airport","name":"Cangxian Air Base","lat":38.403025,"lon":116.930924},{"type":"medium_airport","name":"Jiaozhou Jiaocheng Air Base","lat":36.331163,"lon":120.025538},{"type":"medium_airport","name":"Jiugucheng Air Base","lat":37.491153,"lon":116.116726},{"type":"medium_airport","name":"Kaifeng Air Base","lat":34.7538986206,"lon":114.3389968872},{"type":"medium_airport","name":"Laiyang Air Base","lat":36.9636,"lon":120.591003},{"type":"medium_airport","name":"Luyang Air Base","lat":33.685434,"lon":112.89053},{"type":"medium_airport","name":"Xuzhou Daguozhang Air Base","lat":34.229285,"lon":117.245665},{"type":"medium_airport","name":"Zhucheng Air Base","lat":36.027468,"lon":119.43778},{"type":"medium_airport","name":"Baoji Air Base","lat":34.53125,"lon":107.470679},{"type":"medium_airport","name":"Gonghe Air Base (under construction)","lat":36.3367,"lon":100.480003},{"type":"medium_airport","name":"Huangdicun Naval Air Base","lat":40.49979,"lon":120.659295},{"type":"medium_airport","name":"Lanzhou Air Base","lat":35.917801,"lon":104.218002},{"type":"medium_airport","name":"Lintao Air Base","lat":35.3083,"lon":103.835999},{"type":"medium_airport","name":"Qingshui Air Base","lat":39.554699,"lon":98.884201},{"type":"medium_airport","name":"Ürümqi South Air Base","lat":43.466593,"lon":87.531177},{"type":"medium_airport","name":"Uxxaktal Air Base","lat":42.1814,"lon":87.188103},{"type":"medium_airport","name":"Wugong Air Base","lat":34.275907,"lon":108.2658},{"type":"medium_airport","name":"Ürümqi Changji Air Base","lat":43.951175,"lon":87.079232},{"type":"medium_airport","name":"Wuwei Air Base","lat":37.9883,"lon":102.567001},{"type":"medium_airport","name":"Xi'an Air Base","lat":34.153059,"lon":108.599739},{"type":"medium_airport","name":"Xincheng Air Base","lat":25.5483,"lon":114.619003},{"type":"medium_airport","name":"Yaerbashi Test Range","lat":43.077202,"lon":92.808098},{"type":"medium_airport","name":"Yanliang Air Base","lat":34.642248,"lon":109.241867},{"type":"medium_airport","name":"Daishan Air Base","lat":30.287581,"lon":122.144401},{"type":"medium_airport","name":"Feidong Air Base","lat":31.909401,"lon":117.658997},{"type":"medium_airport","name":"Fuzhou Air Base","lat":26.003857,"lon":119.312832},{"type":"medium_airport","name":"Huian Air Base","lat":25.0261,"lon":118.806999},{"type":"medium_airport","name":"Hangzhou Jianqiao Airport","lat":30.3353,"lon":120.240997},{"type":"medium_airport","name":"Jiaxing Airport \/ Jiaxing Air Base","lat":30.705535,"lon":120.679779},{"type":"medium_airport","name":"Longtian Air Base","lat":25.5728,"lon":119.459999},{"type":"medium_airport","name":"Nanchang Xiangtang Air Base","lat":28.421205,"lon":115.923375},{"type":"medium_airport","name":"Ningbo Zhuangqiao Air Base","lat":29.9228,"lon":121.573997},{"type":"medium_airport","name":"Shanghai Dachang Air Base","lat":31.324438,"lon":121.409508},{"type":"medium_airport","name":"Wuhan Hannan Municipal Airport","lat":30.25521,"lon":114.062805},{"type":"medium_airport","name":"Zhangshu Air Base","lat":28.023283,"lon":115.549649},{"type":"medium_airport","name":"Changchun Air Base","lat":43.9053,"lon":125.197998},{"type":"medium_airport","name":"Beijing Nanjiao Airport","lat":39.48595,"lon":116.37236},{"type":"medium_airport","name":"Dingxin-Shuangchengzi Air Base","lat":40.401402,"lon":99.789398},{"type":"medium_airport","name":"Fuxin Air Base","lat":42.078899,"lon":121.662003},{"type":"medium_airport","name":"Gongzhuling Air Base","lat":43.526293,"lon":124.78466},{"type":"medium_airport","name":"Kaiyuan Air Base","lat":42.525799,"lon":123.982002},{"type":"medium_airport","name":"Lalin Air Base","lat":45.259457,"lon":126.893536},{"type":"medium_airport","name":"Pingquan Air Base","lat":40.900409,"lon":118.677878},{"type":"medium_airport","name":"Shenyang Beiling Air Base","lat":41.8708,"lon":123.439003},{"type":"medium_airport","name":"Shenyang Yuhong Quansheng Airport","lat":41.822498,"lon":123.299004},{"type":"medium_airport","name":"Siping Air Base","lat":43.156898,"lon":124.292},{"type":"medium_airport","name":"Suizhong Air Base","lat":40.298992,"lon":120.36152},{"type":"medium_airport","name":"Tuchengzi Air Base","lat":38.912201,"lon":121.238998},{"type":"medium_airport","name":"Rikaze Dingri Airport","lat":28.604567,"lon":86.798},{"type":"medium_airport","name":"Tashikuergan Hongqilafu Airport","lat":37.661333,"lon":75.288877},{"type":"medium_airport","name":"Chenghu General Airport","lat":31.215334,"lon":120.789328},{"type":"medium_airport","name":"Anji Tianzihu General Airport","lat":30.797725,"lon":119.590287},{"type":"medium_airport","name":"Jiuzhou Airport","lat":26.998259,"lon":107.759571},{"type":"medium_airport","name":"Paozhuwan Air Base","lat":30.673944,"lon":114.63089},{"type":"medium_airport","name":"Shanpo Air Base","lat":30.087612,"lon":114.31366},{"type":"medium_airport","name":"Ali Pulan Airport","lat":30.397898,"lon":81.13317},{"type":"medium_airport","name":"Shaodong Airport","lat":27.2235,"lon":111.6741},{"type":"medium_airport","name":"Ningxiang Airport","lat":27.987589,"lon":112.604971},{"type":"medium_airport","name":"Jining Qufu Airport","lat":35.292778,"lon":116.346667},{"type":"medium_airport","name":"Bengbu Tenghu Airport (U.C.)","lat":33.165808,"lon":117.057295},{"type":"medium_airport","name":"Sanshilipu Air Base","lat":39.289671,"lon":121.762195},{"type":"medium_airport","name":"Brampton-Caledon Airport","lat":43.7603,"lon":-79.875},{"type":"large_airport","name":"(Mislocated duplicate of MRLB) LIR","lat":10.229845,"lon":-85.539551},{"type":"medium_airport","name":"Fort Frances Municipal Airport","lat":48.655749,"lon":-93.44349},{"type":"medium_airport","name":"La Grande-4 Airport","lat":53.754699707,"lon":-73.6753005981},{"type":"medium_airport","name":"Sault Ste Marie Airport","lat":46.483216,"lon":-84.508467},{"type":"medium_airport","name":"Kasabonika Airport","lat":53.5247001648,"lon":-88.6427993774},{"type":"medium_airport","name":"Winnipeg \/ St. Andrews Airport","lat":50.0564,"lon":-97.032501},{"type":"medium_airport","name":"Lac du Bonnet Airport","lat":50.294399,"lon":-96.010002},{"type":"medium_airport","name":"St. Anthony Airport","lat":51.391909,"lon":-56.08321},{"type":"medium_airport","name":"Tofino \/ Long Beach Airport","lat":49.079833,"lon":-125.775583},{"type":"medium_airport","name":"Baie-Comeau Airport","lat":49.1325,"lon":-68.204399},{"type":"medium_airport","name":"Bella Coola Airport","lat":52.387501,"lon":-126.596001},{"type":"medium_airport","name":"Bonnyville Airport","lat":54.304199,"lon":-110.744003},{"type":"medium_airport","name":"CFB Bagotville \/ Saguenay-Bagotville Airport","lat":48.331908,"lon":-70.992909},{"type":"medium_airport","name":"Baker Lake Airport","lat":64.2988967896,"lon":-96.077796936},{"type":"medium_airport","name":"Campbell River Airport","lat":49.950802,"lon":-125.271004},{"type":"medium_airport","name":"Brandon Municipal Airport","lat":49.91,"lon":-99.951897},{"type":"medium_airport","name":"Nipawin Airport","lat":53.3325004578,"lon":-104.0080032349},{"type":"medium_airport","name":"Calgary \/ Springbank Airport","lat":51.1031,"lon":-114.374001},{"type":"medium_airport","name":"Lourdes-de-Blanc-Sablon Airport","lat":51.4436,"lon":-57.185299},{"type":"medium_airport","name":"Cambridge Bay Airport","lat":69.1081008911,"lon":-105.138000488},{"type":"medium_airport","name":"Cornwall Regional Airport","lat":45.092637,"lon":-74.567724},{"type":"medium_airport","name":"Nanaimo Airport","lat":49.05497,"lon":-123.869863},{"type":"medium_airport","name":"Centralia \/ James T. Field Memorial Aerodrome","lat":43.285599,"lon":-81.508301},{"type":"medium_airport","name":"Castlegar\/West Kootenay Regional Airport","lat":49.296398,"lon":-117.632004},{"type":"medium_airport","name":"Miramichi Airport","lat":47.007801,"lon":-65.449203},{"type":"medium_airport","name":"Charlo Airport","lat":47.990799,"lon":-66.330299},{"type":"medium_airport","name":"Cochrane Airport","lat":49.1055984497,"lon":-81.0136032104},{"type":"medium_airport","name":"Blue River Airport","lat":52.1166992188,"lon":-119.2829971313},{"type":"medium_airport","name":"Chetwynd Airport","lat":55.6871986389,"lon":-121.6269989014},{"type":"medium_airport","name":"Dawson City Airport","lat":64.0430984497,"lon":-139.1280059814},{"type":"medium_airport","name":"Burwash Airport","lat":61.371101,"lon":-139.041},{"type":"medium_airport","name":"Deer Lake Airport","lat":49.2108,"lon":-57.391399},{"type":"medium_airport","name":"Ross River Airport","lat":61.9706001282,"lon":-132.42300415},{"type":"medium_airport","name":"Dauphin Barker Airport","lat":51.1008,"lon":-100.052002},{"type":"medium_airport","name":"Dolbeau-Saint-Felicien Airport","lat":48.7785,"lon":-72.375},{"type":"medium_airport","name":"Dawson Creek Airport","lat":55.741245,"lon":-120.183263},{"type":"medium_airport","name":"Huronia Airport","lat":44.6833000183,"lon":-79.9282989502},{"type":"large_airport","name":"Edmonton International Airport","lat":53.3097,"lon":-113.580002},{"type":"medium_airport","name":"Elliot Lake Municipal Airport","lat":46.351398468,"lon":-82.5614013672},{"type":"medium_airport","name":"Manitoulin East Municipal Airport","lat":45.842435,"lon":-81.857595},{"type":"medium_airport","name":"Estevan Airport","lat":49.2103004456,"lon":-102.966003418},{"type":"medium_airport","name":"Edson Airport","lat":53.5788993835,"lon":-116.464996338},{"type":"medium_airport","name":"Inuvik Mike Zubko Airport","lat":68.3041992188,"lon":-133.483001709},{"type":"medium_airport","name":"Amos\/Magny Airport","lat":48.563903,"lon":-78.249702},{"type":"medium_airport","name":"Iqaluit Airport","lat":63.756402,"lon":-68.555801},{"type":"medium_airport","name":"Fredericton Airport","lat":45.8689002991,"lon":-66.5372009277},{"type":"medium_airport","name":"Forestville Airport","lat":48.7461013794,"lon":-69.0971984863},{"type":"medium_airport","name":"Mont-Tremblant International Airport","lat":46.409401,"lon":-74.779999},{"type":"medium_airport","name":"Fort Resolution Airport","lat":61.1808013916,"lon":-113.690002441},{"type":"medium_airport","name":"Fort Simpson Airport","lat":61.7602005005,"lon":-121.2369995117},{"type":"medium_airport","name":"Goderich Airport","lat":43.7668991089,"lon":-81.7106018066},{"type":"medium_airport","name":"Golden Airport","lat":51.299196,"lon":-116.982002},{"type":"medium_airport","name":"Kingston Norman Rogers Airport","lat":44.2253,"lon":-76.596901},{"type":"medium_airport","name":"La Grande Rivière Airport","lat":53.6253013611,"lon":-77.7042007446},{"type":"medium_airport","name":"Gimli Industrial Park Airport","lat":50.6281013489,"lon":-97.043296814},{"type":"medium_airport","name":"Michel-Pouliot Gaspé Airport","lat":48.774915,"lon":-64.481893},{"type":"medium_airport","name":"Geraldton Greenstone Regional Airport","lat":49.778301239,"lon":-86.9393997192},{"type":"medium_airport","name":"Îles-de-la-Madeleine Airport","lat":47.425242,"lon":-61.778612},{"type":"medium_airport","name":"Havre-Saint-Pierre Airport","lat":50.281898,"lon":-63.611401},{"type":"medium_airport","name":"Kuujjuarapik Airport","lat":55.2818984985,"lon":-77.765296936},{"type":"medium_airport","name":"Dryden Regional Airport","lat":49.831699,"lon":-92.744202},{"type":"medium_airport","name":"Hearst René Fontaine Municipal Airport","lat":49.7141990662,"lon":-83.6860961914},{"type":"medium_airport","name":"John C. Munro Hamilton International Airport","lat":43.1735992432,"lon":-79.9349975586},{"type":"medium_airport","name":"Hornepayne Municipal Airport","lat":49.1930999756,"lon":-84.7589035034},{"type":"medium_airport","name":"Haines Junction Airport","lat":60.7892,"lon":-137.546005},{"type":"medium_airport","name":"Montréal \/ Saint-Hubert Metropolitan Airport","lat":45.517502,"lon":-73.416901},{"type":"medium_airport","name":"Hay River \/ Merlyn Carter Airport","lat":60.8396987915,"lon":-115.782997131},{"type":"large_airport","name":"Halifax \/ Stanfield International Airport","lat":44.8807983398,"lon":-63.5085983276},{"type":"medium_airport","name":"Atikokan Municipal Airport","lat":48.773899,"lon":-91.638603},{"type":"medium_airport","name":"Digby \/ Annapolis Regional Airport","lat":44.5458450365,"lon":-65.7854247093},{"type":"medium_airport","name":"St Augustin Airport","lat":51.2117,"lon":-58.658298},{"type":"medium_airport","name":"Island Lake Airport","lat":53.8572006226,"lon":-94.6536026001},{"type":"medium_airport","name":"Fort Liard Airport","lat":60.2358016968,"lon":-123.46900177},{"type":"medium_airport","name":"St Jean Airport","lat":45.2943992615,"lon":-73.2810974121},{"type":"medium_airport","name":"Dymond Airport","lat":48.544201,"lon":-58.549999},{"type":"medium_airport","name":"Kamloops John Moose Fulton Field Regional Airport","lat":50.703038,"lon":-120.448641},{"type":"medium_airport","name":"Region of Waterloo International Airport","lat":43.4608,"lon":-80.378601},{"type":"medium_airport","name":"Key Lake Airport","lat":57.2560997009,"lon":-105.6179962158},{"type":"medium_airport","name":"Schefferville Airport","lat":54.8053016663,"lon":-66.8052978516},{"type":"medium_airport","name":"Kincardine Municipal Airport","lat":44.201401,"lon":-81.606697},{"type":"medium_airport","name":"Kirkland Lake Airport","lat":48.2103004456,"lon":-79.9813995361},{"type":"medium_airport","name":"Kindersley Airport","lat":51.5175018311,"lon":-109.180999756},{"type":"medium_airport","name":"Chapleau Airport","lat":47.8199996948,"lon":-83.3467025757},{"type":"medium_airport","name":"Meadow Lake Airport","lat":54.1253013611,"lon":-108.5230026245},{"type":"medium_airport","name":"Lloydminster Airport","lat":53.3092,"lon":-110.072998},{"type":"medium_airport","name":"Leaf Rapids Airport","lat":56.5133018494,"lon":-99.9852981567},{"type":"medium_airport","name":"Barrie-Lake Simcoe Regional Airport","lat":44.485056,"lon":-79.554663},{"type":"medium_airport","name":"Alert Airport","lat":82.517799,"lon":-62.280602},{"type":"medium_airport","name":"Kelowna International Airport","lat":49.9561,"lon":-119.377998},{"type":"medium_airport","name":"Mayo Airport","lat":63.6164016724,"lon":-135.8679962158},{"type":"medium_airport","name":"Matane Airport","lat":48.8568992615,"lon":-67.4533004761},{"type":"medium_airport","name":"Manitouwadge Airport","lat":49.0839004517,"lon":-85.8606033325},{"type":"medium_airport","name":"Moose Jaw Air Vice Marshal C. M. McEwen Airport","lat":50.3302993774,"lon":-105.5589981079},{"type":"medium_airport","name":"Charlevoix Airport","lat":47.5974998474,"lon":-70.2238998413},{"type":"medium_airport","name":"Fort McMurray Airport","lat":56.653301239,"lon":-111.222000122},{"type":"medium_airport","name":"Moosonee Airport","lat":51.2910995483,"lon":-80.6078033447},{"type":"medium_airport","name":"Chapais Airport","lat":49.771900177,"lon":-74.5280990601},{"type":"medium_airport","name":"Montreal International (Mirabel) Airport","lat":45.679501,"lon":-74.038696},{"type":"medium_airport","name":"Natashquan Airport","lat":50.190114,"lon":-61.78898},{"type":"medium_airport","name":"Ottawa \/ Gatineau Airport","lat":45.521702,"lon":-75.563599},{"type":"medium_airport","name":"Langley Airport","lat":49.1008,"lon":-122.630997},{"type":"medium_airport","name":"Points North Landing Airport","lat":58.2766990662,"lon":-104.0820007324},{"type":"medium_airport","name":"Matagami Airport","lat":49.7616996765,"lon":-77.8028030396},{"type":"medium_airport","name":"Nejanilini Lake Airport","lat":59.4874992371,"lon":-97.7802963257},{"type":"medium_airport","name":"Ekati Airport","lat":64.6988983154,"lon":-110.614997864},{"type":"medium_airport","name":"CFB Cold Lake","lat":54.4049987793,"lon":-110.2789993286},{"type":"medium_airport","name":"High Level Airport","lat":58.6213989258,"lon":-117.1650009155},{"type":"medium_airport","name":"Oshawa Executive Airport","lat":43.922798,"lon":-78.894997},{"type":"medium_airport","name":"Rainbow Lake Airport","lat":58.491402,"lon":-119.407997},{"type":"medium_airport","name":"Owen Sound \/ Billy Bishop Regional Airport","lat":44.5903015137,"lon":-80.8375015259},{"type":"large_airport","name":"Ottawa Macdonald-Cartier International Airport","lat":45.322498,"lon":-75.669197},{"type":"medium_airport","name":"Prince Albert Glass Field","lat":53.2141990662,"lon":-105.672996521},{"type":"medium_airport","name":"Port Hawkesbury Airport","lat":45.6567001343,"lon":-61.3680992126},{"type":"medium_airport","name":"Peace River Airport","lat":56.226898,"lon":-117.446999},{"type":"medium_airport","name":"Portage-la-Prairie \/ Southport Airport","lat":49.903099,"lon":-98.273817},{"type":"medium_airport","name":"Pitt Meadows Airport","lat":49.216099,"lon":-122.709999},{"type":"medium_airport","name":"Pickle Lake Airport","lat":51.4463996887,"lon":-90.2142028809},{"type":"medium_airport","name":"Port-Menier Airport","lat":49.836399,"lon":-64.288597},{"type":"medium_airport","name":"Peterborough Municipal Airport","lat":44.23,"lon":-78.363297},{"type":"medium_airport","name":"Prince Rupert Airport","lat":54.2860984802,"lon":-130.445007324},{"type":"medium_airport","name":"Powell River Airport","lat":49.8342018127,"lon":-124.5},{"type":"medium_airport","name":"Puvirnituq Airport","lat":60.050598,"lon":-77.286903},{"type":"medium_airport","name":"Fort Chipewyan Airport","lat":58.76720047,"lon":-111.1169967651},{"type":"medium_airport","name":"Burns Lake Airport","lat":54.3764,"lon":-125.950996},{"type":"medium_airport","name":"Muskoka Airport","lat":44.975376,"lon":-79.306546},{"type":"large_airport","name":"Quebec Jean Lesage International Airport","lat":46.7911,"lon":-71.393303},{"type":"medium_airport","name":"The Pas Airport","lat":53.9714012146,"lon":-101.091003418},{"type":"medium_airport","name":"Red Deer Regional Airport","lat":52.182201,"lon":-113.893997},{"type":"medium_airport","name":"Windsor Airport","lat":42.2756004333,"lon":-82.9555969238},{"type":"medium_airport","name":"Watson Lake Airport","lat":60.116839,"lon":-128.821993},{"type":"medium_airport","name":"Yarmouth Airport","lat":43.8269004822,"lon":-66.0880966187},{"type":"medium_airport","name":"Kenora Airport","lat":49.7882995605,"lon":-94.3630981445},{"type":"medium_airport","name":"Lethbridge County Airport","lat":49.6302986145,"lon":-112.800003052},{"type":"medium_airport","name":"Greater Moncton Roméo LeBlanc International Airport","lat":46.112202,"lon":-64.678596},{"type":"medium_airport","name":"Nakina Airport","lat":50.182800293,"lon":-86.6964035034},{"type":"medium_airport","name":"Comox Valley Airport \/ CFB Comox","lat":49.7108,"lon":-124.887001},{"type":"medium_airport","name":"Regina International Airport","lat":50.4319000244,"lon":-104.6660003662},{"type":"medium_airport","name":"St Thomas Municipal Airport","lat":42.7700004578,"lon":-81.1108016968},{"type":"medium_airport","name":"Thunder Bay Airport","lat":48.3718986511,"lon":-89.3238983154},{"type":"medium_airport","name":"Grande Prairie Airport","lat":55.1796989441,"lon":-118.885002136},{"type":"medium_airport","name":"Yorkton Municipal Airport","lat":51.2647018433,"lon":-102.4619979858},{"type":"medium_airport","name":"North Battleford Airport","lat":52.769409,"lon":-108.243742},{"type":"medium_airport","name":"Gander International Airport \/ CFB Gander","lat":48.936258,"lon":-54.567719},{"type":"medium_airport","name":"Sydney \/ J.A. Douglas McCurdy Airport","lat":46.1614,"lon":-60.047798},{"type":"medium_airport","name":"Quesnel Airport","lat":53.0261001587,"lon":-122.5100021362},{"type":"medium_airport","name":"Resolute Bay Airport","lat":74.7169036865,"lon":-94.9693984985},{"type":"medium_airport","name":"Rivière-du-Loup Airport","lat":47.7644004822,"lon":-69.5847015381},{"type":"medium_airport","name":"Roberval Airport","lat":48.519665,"lon":-72.265735},{"type":"medium_airport","name":"Red Lake Airport","lat":51.0668983459,"lon":-93.7930984497},{"type":"medium_airport","name":"Ottawa \/ Rockcliffe Airport","lat":45.4603004456,"lon":-75.6461029053},{"type":"medium_airport","name":"Ottawa \/ Carp Airport","lat":45.3191986084,"lon":-76.0222015381},{"type":"medium_airport","name":"Trois-Rivières Airport","lat":46.3527984619,"lon":-72.679397583},{"type":"medium_airport","name":"Rankin Inlet Airport","lat":62.8114013672,"lon":-92.1157989502},{"type":"medium_airport","name":"Revelstoke Airport","lat":50.962245,"lon":-118.184258},{"type":"medium_airport","name":"Sudbury Airport","lat":46.625,"lon":-80.7988967896},{"type":"medium_airport","name":"Sherbrooke Airport","lat":45.438599,"lon":-71.691399},{"type":"medium_airport","name":"Stony Rapids Airport","lat":59.2503013611,"lon":-105.841003418},{"type":"medium_airport","name":"Saint-Georges Airport","lat":46.096401,"lon":-70.714699},{"type":"medium_airport","name":"Smiths Falls-Montague (Russ Beach) Airport","lat":44.945801,"lon":-75.940598},{"type":"medium_airport","name":"Saint John Airport","lat":45.3161010742,"lon":-65.890296936},{"type":"medium_airport","name":"Saint-Léonard Airport","lat":47.157097,"lon":-67.836242},{"type":"medium_airport","name":"Fort Smith Airport","lat":60.020302,"lon":-111.961998},{"type":"medium_airport","name":"Niagara District Airport","lat":43.191598,"lon":-79.171686},{"type":"medium_airport","name":"Marathon Airport","lat":48.7552986145,"lon":-86.3443984985},{"type":"medium_airport","name":"Summerside Airport","lat":46.440601,"lon":-63.833599},{"type":"medium_airport","name":"Pembroke Airport","lat":45.8643989563,"lon":-77.251701355},{"type":"medium_airport","name":"Alma Airport","lat":48.5089,"lon":-71.641899},{"type":"medium_airport","name":"Thompson Airport","lat":55.8011016846,"lon":-97.8641967773},{"type":"medium_airport","name":"CFB Trenton","lat":44.1189002991,"lon":-77.5280990601},{"type":"medium_airport","name":"Timmins\/Victor M. Power","lat":48.5696983337,"lon":-81.376701355},{"type":"medium_airport","name":"Billy Bishop Toronto City Centre Airport","lat":43.627499,"lon":-79.396202},{"type":"large_airport","name":"Montreal \/ Pierre Elliott Trudeau International Airport","lat":45.467837,"lon":-73.742294},{"type":"medium_airport","name":"Hall Beach Airport","lat":68.7761,"lon":-81.2425},{"type":"medium_airport","name":"Rouyn Noranda Airport","lat":48.2061004639,"lon":-78.8356018066},{"type":"medium_airport","name":"Bonaventure Airport","lat":48.071098,"lon":-65.460297},{"type":"medium_airport","name":"La Ronge Airport","lat":55.1514015198,"lon":-105.262001038},{"type":"medium_airport","name":"Virden \/ RJ (Bob) Andrew Field Regional Aerodrome","lat":49.8783,"lon":-100.917999},{"type":"medium_airport","name":"Vernon Regional Airport","lat":50.246163,"lon":-119.330963},{"type":"medium_airport","name":"Val-d'Or Airport","lat":48.0532989502,"lon":-77.7827987671},{"type":"medium_airport","name":"Kuujjuaq Airport","lat":58.0960998535,"lon":-68.426902771},{"type":"medium_airport","name":"Norman Wells Airport","lat":65.2816009521,"lon":-126.797996521},{"type":"large_airport","name":"Vancouver International Airport","lat":49.193901062,"lon":-123.183998108},{"type":"medium_airport","name":"Wiarton Airport","lat":44.7458,"lon":-81.107201},{"type":"large_airport","name":"Winnipeg \/ James Armstrong Richardson International Airport","lat":49.9099998474,"lon":-97.2398986816},{"type":"medium_airport","name":"Wabush Airport","lat":52.9219017029,"lon":-66.864402771},{"type":"medium_airport","name":"Williams Lake Airport","lat":52.1831016541,"lon":-122.054000854},{"type":"medium_airport","name":"Wrigley Airport","lat":63.209400177,"lon":-123.43699646},{"type":"medium_airport","name":"Cranbrook\/Canadian Rockies International Airport","lat":49.6108016968,"lon":-115.7819976807},{"type":"medium_airport","name":"Saskatoon John G. Diefenbaker International Airport","lat":52.1707992554,"lon":-106.6999969482},{"type":"medium_airport","name":"Medicine Hat Regional Airport","lat":50.018902,"lon":-110.721001},{"type":"medium_airport","name":"Fort St John \/ North Peace Regional Airport","lat":56.238098,"lon":-120.739998},{"type":"medium_airport","name":"Rimouski Airport","lat":48.477644,"lon":-68.496323},{"type":"medium_airport","name":"Sioux Lookout Airport","lat":50.113899231,"lon":-91.9052963257},{"type":"medium_airport","name":"Beaver Creek Airport","lat":62.4103012085,"lon":-140.8670043945},{"type":"medium_airport","name":"Earlton (Timiskaming Regional) Airport","lat":47.6974006546,"lon":-79.8473453522},{"type":"medium_airport","name":"Prince George Airport","lat":53.884311,"lon":-122.666554},{"type":"medium_airport","name":"Northwest Regional Airport Terrace-Kitimat","lat":54.468498,"lon":-128.576009},{"type":"medium_airport","name":"London Airport","lat":43.035599,"lon":-81.1539},{"type":"medium_airport","name":"Abbotsford International Airport","lat":49.025299,"lon":-122.361},{"type":"medium_airport","name":"Whitehorse \/ Erik Nielsen International Airport","lat":60.709599,"lon":-135.067001},{"type":"medium_airport","name":"Wawa Airport","lat":47.9667015076,"lon":-84.7866973877},{"type":"medium_airport","name":"North Bay Jack Garland Airport","lat":46.363602,"lon":-79.422798},{"type":"large_airport","name":"Calgary International Airport","lat":51.118822,"lon":-114.009933},{"type":"medium_airport","name":"Smithers Airport","lat":54.8246994019,"lon":-127.1829986572},{"type":"medium_airport","name":"Fort Nelson Airport","lat":58.8363990784,"lon":-122.597000122},{"type":"medium_airport","name":"Penticton Airport","lat":49.4631004333,"lon":-119.6019973755},{"type":"medium_airport","name":"Charlottetown Airport","lat":46.2900009155,"lon":-63.1211013794},{"type":"medium_airport","name":"Victoria International Airport","lat":48.647201,"lon":-123.427792},{"type":"medium_airport","name":"Lynn Lake Airport","lat":56.863899231,"lon":-101.0759963989},{"type":"medium_airport","name":"Swift Current Airport","lat":50.2919006348,"lon":-107.691001892},{"type":"medium_airport","name":"Churchill Airport","lat":58.739200592,"lon":-94.0650024414},{"type":"medium_airport","name":"Goose Bay Airport","lat":53.3191986084,"lon":-60.4258003235},{"type":"large_airport","name":"St. John's International Airport","lat":47.618599,"lon":-52.7519},{"type":"medium_airport","name":"Kapuskasing Airport","lat":49.411587,"lon":-82.469645},{"type":"medium_airport","name":"Armstrong Airport","lat":50.2902984619,"lon":-88.9096984863},{"type":"medium_airport","name":"Mont Joli Airport","lat":48.6086006165,"lon":-68.2080993652},{"type":"large_airport","name":"Toronto Lester B. Pearson International Airport","lat":43.6772,"lon":-79.6306},{"type":"medium_airport","name":"Gore Bay Manitoulin Airport","lat":45.8853,"lon":-82.567802},{"type":"medium_airport","name":"Yellowknife International Airport","lat":62.462799,"lon":-114.440002},{"type":"medium_airport","name":"Slave Lake Airport","lat":55.292945,"lon":-114.777276},{"type":"medium_airport","name":"Sandspit Airport","lat":53.2542991638,"lon":-131.813995361},{"type":"medium_airport","name":"Chris Hadfield Airport","lat":42.999401,"lon":-82.308899},{"type":"medium_airport","name":"Coral Harbour Airport","lat":64.1932983398,"lon":-83.3593978882},{"type":"medium_airport","name":"Port Hardy Airport","lat":50.6805992126,"lon":-127.3669967651},{"type":"medium_airport","name":"Whitecourt Airport","lat":54.143902,"lon":-115.787003},{"type":"medium_airport","name":"Sept-Îles Airport","lat":50.2233009338,"lon":-66.2656021118},{"type":"medium_airport","name":"Teslin Airport","lat":60.1727981567,"lon":-132.7429962158},{"type":"medium_airport","name":"CFB Greenwood","lat":44.9844017029,"lon":-64.9169006348},{"type":"medium_airport","name":"Mackenzie Airport","lat":55.297786,"lon":-123.133907},{"type":"medium_airport","name":"Shuswap Regional Airport","lat":50.682802,"lon":-119.228996},{"type":"medium_airport","name":"Boundary Bay Airport","lat":49.0742,"lon":-123.012001},{"type":"medium_airport","name":"Bathurst Airport","lat":47.6297,"lon":-65.738899},{"type":"medium_airport","name":"Bromont (Roland Désourdy) Airport","lat":45.290798,"lon":-72.741402},{"type":"medium_airport","name":"Kelsey Airport","lat":56.0374984741,"lon":-96.5096969604},{"type":"medium_airport","name":"Faro Airport","lat":62.2075004578,"lon":-133.3760070801},{"type":"medium_airport","name":"Grand Forks Airport","lat":49.015598,"lon":-118.431},{"type":"medium_airport","name":"Jenpeg Airport","lat":54.518901825,"lon":-98.0460968018},{"type":"medium_airport","name":"Swan River Airport","lat":52.120602,"lon":-101.236},{"type":"medium_airport","name":"Thicket Portage Airport","lat":55.318901062,"lon":-97.7078018188},{"type":"medium_airport","name":"Pikwitonei Airport","lat":55.5889015198,"lon":-97.1641998291},{"type":"medium_airport","name":"Masset Airport","lat":54.0275,"lon":-132.125},{"type":"medium_airport","name":"Pincher Creek Airport","lat":49.520429,"lon":-113.997002},{"type":"medium_airport","name":"Sandy Lake Airport","lat":53.064201355,"lon":-93.3443984985},{"type":"medium_airport","name":"Stewart Airport","lat":55.935410448,"lon":-129.982434511},{"type":"medium_airport","name":"Ignace Municipal Airport","lat":49.428204,"lon":-91.720418},{"type":"medium_airport","name":"Blida Airport","lat":36.503601,"lon":2.81417},{"type":"medium_airport","name":"Bou Saada Airport","lat":35.3325,"lon":4.20639},{"type":"medium_airport","name":"Soummam–Abane Ramdane Airport","lat":36.711952,"lon":5.069804},{"type":"large_airport","name":"Houari Boumediene Airport","lat":36.693886,"lon":3.214531},{"type":"medium_airport","name":"Djanet Inedbirene Airport","lat":24.292801,"lon":9.45244},{"type":"medium_airport","name":"Boufarik Air Base","lat":36.545799,"lon":2.87611},{"type":"medium_airport","name":"Illizi Takhamalt Airport","lat":26.723499,"lon":8.62265},{"type":"medium_airport","name":"Ain Arnat Airport","lat":36.1781005859,"lon":5.3244900703},{"type":"medium_airport","name":"Aguenar – Hadj Bey Akhamok Airport","lat":22.811501,"lon":5.45108},{"type":"medium_airport","name":"Jijel Ferhat Abbas Airport","lat":36.795101,"lon":5.87361},{"type":"medium_airport","name":"Mecheria Airport","lat":33.535900116,"lon":-0.2423530072},{"type":"medium_airport","name":"Relizane Airport","lat":35.752955,"lon":0.625877},{"type":"medium_airport","name":"Annaba Rabah Bitat Airport","lat":36.826781,"lon":7.81334},{"type":"medium_airport","name":"Mohamed Boudiaf International Airport","lat":36.2760009766,"lon":6.6203899384},{"type":"medium_airport","name":"Cheikh Larbi Tébessi Airport","lat":35.4315986633,"lon":8.1207199097},{"type":"medium_airport","name":"Batna Mostefa Ben Boulaid Airport","lat":35.752102,"lon":6.30859},{"type":"medium_airport","name":"Hassi R'Mel Airport","lat":32.930401,"lon":3.31154},{"type":"medium_airport","name":"Abdelhafid Boussouf Bou Chekif Airport","lat":35.341099,"lon":1.46315},{"type":"medium_airport","name":"Tindouf Airport","lat":27.7003993988,"lon":-8.1670999527},{"type":"medium_airport","name":"Chlef Aboubakr Belkaid International Airport","lat":36.217166,"lon":1.342237},{"type":"medium_airport","name":"Oran Tafraoui Airport","lat":35.5424,"lon":-0.532278},{"type":"medium_airport","name":"Zenata – Messali El Hadj Airport","lat":35.013426,"lon":-1.457191},{"type":"medium_airport","name":"Oran Es-Sénia (Ahmed Ben Bella) International Airport","lat":35.623901,"lon":-0.621183},{"type":"medium_airport","name":"Béchar Boudghene Ben Ali Lotfi Airport","lat":31.6457004547,"lon":-2.2698600292},{"type":"medium_airport","name":"Ghriss Airport","lat":35.207699,"lon":0.147142},{"type":"medium_airport","name":"Touat Cheikh Sidi Mohamed Belkebir Airport","lat":27.837601,"lon":-0.186414},{"type":"medium_airport","name":"Biskra - Mohamed Khider Airport","lat":34.793301,"lon":5.73823},{"type":"medium_airport","name":"El Golea Airport","lat":30.580732,"lon":2.861595},{"type":"medium_airport","name":"Noumérat - Moufdi Zakaria Airport","lat":32.384102,"lon":3.79411},{"type":"medium_airport","name":"Hassi Messaoud-Oued Irara Krim Belkacem Airport","lat":31.673,"lon":6.14044},{"type":"medium_airport","name":"In Salah Airport","lat":27.250999,"lon":2.51202},{"type":"medium_airport","name":"Touggourt Sidi Madhi Airport","lat":33.067799,"lon":6.08867},{"type":"medium_airport","name":"Laghouat - Molay Ahmed Medeghri Airport","lat":33.7644,"lon":2.92834},{"type":"medium_airport","name":"Guemar Airport - مطار قمار بالوادي","lat":33.511398,"lon":6.77679},{"type":"medium_airport","name":"Timimoun Airport","lat":29.237101,"lon":0.276033},{"type":"medium_airport","name":"Ain Beida Airport","lat":31.9172,"lon":5.41278},{"type":"medium_airport","name":"Zarzaitine - In Aménas Airport","lat":28.0515,"lon":9.64291},{"type":"medium_airport","name":"Cadjehoun Airport","lat":6.3572301865,"lon":2.3843500614},{"type":"medium_airport","name":"Ouagadougou Airport","lat":12.3532,"lon":-1.51242},{"type":"medium_airport","name":"Bobo Dioulasso Airport","lat":11.1600999832,"lon":-4.3309698105},{"type":"large_airport","name":"Kotoka International Airport","lat":5.6051898003,"lon":-0.1667860001},{"type":"medium_airport","name":"Ho Airport","lat":6.579691,"lon":0.532547},{"type":"medium_airport","name":"Tamale Airport","lat":9.5571899414,"lon":-0.863214016},{"type":"medium_airport","name":"Kumasi Airport","lat":6.7145600319,"lon":-1.5908199549},{"type":"medium_airport","name":"Sunyani Airport","lat":7.36183,"lon":-2.32876},{"type":"medium_airport","name":"Takoradi Airport","lat":4.8960599899,"lon":-1.7747600079},{"type":"medium_airport","name":"Félix-Houphouët-Boigny International Airport","lat":5.26139,"lon":-3.92629},{"type":"medium_airport","name":"Bouaké Airport","lat":7.7388,"lon":-5.07367},{"type":"medium_airport","name":"Daloa Airport","lat":6.79281,"lon":-6.47319},{"type":"medium_airport","name":"Korhogo Airport","lat":9.38718,"lon":-5.55666},{"type":"medium_airport","name":"Man Airport","lat":7.27207,"lon":-7.58736},{"type":"medium_airport","name":"San Pedro Airport","lat":4.74672,"lon":-6.66082},{"type":"medium_airport","name":"Yamoussoukro Airport","lat":6.9031701088,"lon":-5.3655800819},{"type":"large_airport","name":"Nnamdi Azikiwe International Airport","lat":9.00679,"lon":7.26317},{"type":"medium_airport","name":"Akwa Ibom International Airport","lat":4.8725,"lon":8.093},{"type":"medium_airport","name":"Akure Airport","lat":7.2467398643,"lon":5.3010101318},{"type":"medium_airport","name":"Asaba International Airport","lat":6.204167,"lon":6.665278},{"type":"medium_airport","name":"Sir Abubakar Tafawa Balewa International Airport","lat":10.482833,"lon":9.744},{"type":"medium_airport","name":"Benin Airport","lat":6.3169798851,"lon":5.5995001793},{"type":"medium_airport","name":"Bayelsa International Airport","lat":4.95759,"lon":6.203327},{"type":"medium_airport","name":"Margaret Ekpo International Airport","lat":4.9760198593,"lon":8.3472003937},{"type":"medium_airport","name":"Akanu Ibiam International Airport","lat":6.4742698669,"lon":7.5619602203},{"type":"medium_airport","name":"Gombe Lawanti International Airport","lat":10.298889,"lon":10.9},{"type":"medium_airport","name":"Gusau Airport","lat":12.17286,"lon":6.696136},{"type":"medium_airport","name":"Ibadan Airport","lat":7.3624601364,"lon":3.9783298969},{"type":"medium_airport","name":"Ilorin International Airport","lat":8.4402103424,"lon":4.4939198494},{"type":"medium_airport","name":"Sam Mbakwe International Airport","lat":5.4270601273,"lon":7.206029892},{"type":"medium_airport","name":"Yakubu Gowon Airport","lat":9.6398296356,"lon":8.8690500259},{"type":"medium_airport","name":"Kaduna Airport","lat":10.6960000992,"lon":7.3201098442},{"type":"medium_airport","name":"Mallam Aminu International Airport","lat":12.0476,"lon":8.52462},{"type":"medium_airport","name":"Maiduguri International Airport","lat":11.8552999496,"lon":13.0809001923},{"type":"medium_airport","name":"Makurdi Airport","lat":7.70388,"lon":8.61394},{"type":"large_airport","name":"Murtala Muhammed International Airport","lat":6.57737,"lon":3.32116},{"type":"medium_airport","name":"Minna Airport","lat":9.6521701813,"lon":6.4622597694},{"type":"medium_airport","name":"Port Harcourt International Airport","lat":5.0154900551,"lon":6.9495902061},{"type":"medium_airport","name":"Sadiq Abubakar III International Airport","lat":12.9162998199,"lon":5.2071900368},{"type":"medium_airport","name":"Warri Airport","lat":5.59821,"lon":5.8187},{"type":"medium_airport","name":"Yola Airport","lat":9.2575502396,"lon":12.4303998947},{"type":"medium_airport","name":"Zaria Airport","lat":11.1302,"lon":7.68581},{"type":"medium_airport","name":"Maradi Airport","lat":13.5025,"lon":7.12675},{"type":"large_airport","name":"Diori Hamani International Airport","lat":13.4815,"lon":2.18361},{"type":"medium_airport","name":"Tahoua Airport","lat":14.8757,"lon":5.26536},{"type":"medium_airport","name":"Mano Dayak International Airport","lat":16.9659996033,"lon":8.0001096725},{"type":"medium_airport","name":"Zinder Airport","lat":13.7790002823,"lon":8.9837598801},{"type":"medium_airport","name":"Tabarka-Aïn Draham International Airport","lat":36.98,"lon":8.87694},{"type":"medium_airport","name":"Monastir Habib Bourguiba International Airport","lat":35.7580986023,"lon":10.754699707},{"type":"medium_airport","name":"Enfidha - Hammamet International Airport","lat":36.075833,"lon":10.438611},{"type":"large_airport","name":"Tunis Carthage International Airport","lat":36.851002,"lon":10.2272},{"type":"medium_airport","name":"Bizerte Sidi Ahmed Air Base","lat":37.242356,"lon":9.787016},{"type":"medium_airport","name":"Remada Air Base","lat":32.306198,"lon":10.3821},{"type":"medium_airport","name":"Gafsa Ksar International Airport","lat":34.422000885,"lon":8.8225002289},{"type":"medium_airport","name":"Gabès Matmata International Airport","lat":33.733691,"lon":9.91941},{"type":"medium_airport","name":"Djerba Zarzis International Airport","lat":33.875,"lon":10.7755},{"type":"medium_airport","name":"El Borma Airport","lat":31.7043,"lon":9.25462},{"type":"medium_airport","name":"Sfax Thyna International Airport","lat":34.7179985046,"lon":10.6909999847},{"type":"medium_airport","name":"Tozeur Nefta International Airport","lat":33.9397010803,"lon":8.1105604172},{"type":"medium_airport","name":"Niamtougou International Airport","lat":9.7673301697,"lon":1.0912499428},{"type":"medium_airport","name":"Lomé–Tokoin International Airport","lat":6.16561,"lon":1.25451},{"type":"medium_airport","name":"Amguid Regional Airport","lat":26.393417,"lon":5.325419},{"type":"medium_airport","name":"Antwerp International Airport (Deurne)","lat":51.190667,"lon":4.463153},{"type":"medium_airport","name":"Beauvechain Air Base","lat":50.758598,"lon":4.76833},{"type":"medium_airport","name":"Kleine Brogel Air Base","lat":51.168301,"lon":5.47},{"type":"large_airport","name":"Brussels Airport","lat":50.901402,"lon":4.48444},{"type":"medium_airport","name":"Brussels South Charleroi Airport","lat":50.460982,"lon":4.457158},{"type":"medium_airport","name":"Chièvres Air Base","lat":50.5758018494,"lon":3.8310000896},{"type":"medium_airport","name":"Koksijde Air Base","lat":51.090302,"lon":2.65278},{"type":"medium_airport","name":"Florennes Air Base","lat":50.2433013916,"lon":4.6458301544},{"type":"medium_airport","name":"Flanders International Airport Kortrijk-Wevelgem","lat":50.818878,"lon":3.209551},{"type":"medium_airport","name":"Liège Airport","lat":50.638574,"lon":5.443897},{"type":"medium_airport","name":"Oostende-Brugge International Airport","lat":51.1998,"lon":2.874673},{"type":"medium_airport","name":"Leipzig–Altenburg Airport","lat":50.981945,"lon":12.506389},{"type":"medium_airport","name":"Heringsdorf Airport","lat":53.8787,"lon":14.1523},{"type":"medium_airport","name":"Neubrandenburg Trollenhagen Airport","lat":53.6022,"lon":13.306},{"type":"medium_airport","name":"Rothenburg\/Görlitz Airfield","lat":51.363335,"lon":14.95},{"type":"large_airport","name":"Berlin Brandenburg Airport","lat":52.362247,"lon":13.500672},{"type":"medium_airport","name":"Dresden Airport","lat":51.134123,"lon":13.767831},{"type":"medium_airport","name":"Erfurt-Weimar Airport","lat":50.979801,"lon":10.9581},{"type":"large_airport","name":"Frankfurt Airport","lat":50.030241,"lon":8.561096},{"type":"medium_airport","name":"Münster Osnabrück Airport","lat":52.134602,"lon":7.68483},{"type":"large_airport","name":"Hamburg Helmut Schmidt Airport","lat":53.630402,"lon":9.98823},{"type":"large_airport","name":"Cologne Bonn Airport","lat":50.865898,"lon":7.14274},{"type":"large_airport","name":"Düsseldorf Airport","lat":51.289501,"lon":6.76678},{"type":"large_airport","name":"Munich Airport","lat":48.353802,"lon":11.7861},{"type":"large_airport","name":"Nuremberg Airport","lat":49.498699,"lon":11.078056},{"type":"large_airport","name":"Leipzig\/Halle Airport","lat":51.420657,"lon":12.232705},{"type":"medium_airport","name":"Saarbrücken Airport","lat":49.2145996094,"lon":7.1095099449},{"type":"large_airport","name":"Stuttgart Airport","lat":48.689899,"lon":9.22196},{"type":"large_airport","name":"Hannover Airport","lat":52.461102,"lon":9.68508},{"type":"medium_airport","name":"Bremen Airport","lat":53.046786,"lon":8.78932},{"type":"medium_airport","name":"Frankfurt-Egelsbach Airport","lat":49.96,"lon":8.643043},{"type":"medium_airport","name":"Frankfurt-Hahn Airport","lat":49.9487,"lon":7.26389},{"type":"medium_airport","name":"Mannheim-City Airport","lat":49.473057,"lon":8.514167},{"type":"medium_airport","name":"Mainz-Finthen Airfield","lat":49.967499,"lon":8.147222},{"type":"medium_airport","name":"Eisenach-Kindel Airport","lat":50.991604,"lon":10.47973},{"type":"medium_airport","name":"Siegerland Airport","lat":50.707699,"lon":8.08297},{"type":"medium_airport","name":"Hamburg-Finkenwerder Airport","lat":53.5352783203,"lon":9.8355560303},{"type":"medium_airport","name":"Kiel-Holtenau Airport","lat":54.37957,"lon":10.145266},{"type":"medium_airport","name":"Lübeck Blankensee Airport","lat":53.805401,"lon":10.7192},{"type":"medium_airport","name":"Memmingen Allgau Airport","lat":47.9888000488,"lon":10.2395000458},{"type":"medium_airport","name":"Mönchengladbach Airport","lat":51.230278,"lon":6.504444},{"type":"medium_airport","name":"Paderborn Lippstadt Airport","lat":51.614101,"lon":8.61632},{"type":"medium_airport","name":"Weeze Airport","lat":51.6024017334,"lon":6.1421699524},{"type":"medium_airport","name":"Dortmund Airport","lat":51.518299,"lon":7.61224},{"type":"medium_airport","name":"Augsburg Airport","lat":48.425278,"lon":10.931667},{"type":"medium_airport","name":"Oberpfaffenhofen Airport","lat":48.081402,"lon":11.2831},{"type":"medium_airport","name":"Friedrichshafen Airport","lat":47.671299,"lon":9.51149},{"type":"medium_airport","name":"Bamberg-Breitenau Airfield","lat":49.920403,"lon":10.914233},{"type":"medium_airport","name":"Bayreuth Airport","lat":49.985001,"lon":11.64},{"type":"medium_airport","name":"Hof-Plauen Airport","lat":50.288544,"lon":11.852876},{"type":"medium_airport","name":"Karlsruhe Baden-Baden Airport","lat":48.7794,"lon":8.0805},{"type":"medium_airport","name":"Donaueschingen-Villingen Airfield","lat":47.973331,"lon":8.522222},{"type":"medium_airport","name":"Lahr Airport","lat":48.369301,"lon":7.82772},{"type":"medium_airport","name":"Mengen-Hohentengen Airfield","lat":48.05389,"lon":9.372778},{"type":"medium_airport","name":"Adolf Würth Airport","lat":49.118332,"lon":9.783889},{"type":"medium_airport","name":"Zerbst Airfield","lat":52.000832,"lon":12.148611},{"type":"medium_airport","name":"Braunschweig-Wolfsburg Airport","lat":52.319199,"lon":10.5561},{"type":"medium_airport","name":"Kassel Airport","lat":51.420699,"lon":9.392152},{"type":"medium_airport","name":"Westerland Sylt Airport","lat":54.9132,"lon":8.34047},{"type":"medium_airport","name":"Ämari Air Base","lat":59.259599,"lon":24.204799},{"type":"medium_airport","name":"Kärdla Airport","lat":58.9907989502,"lon":22.8306999207},{"type":"medium_airport","name":"Kuressaare Airport","lat":58.2299003601,"lon":22.5095005035},{"type":"medium_airport","name":"Pärnu Airport","lat":58.4189987183,"lon":24.4727993011},{"type":"medium_airport","name":"Berenice International Airport \/ Banas Cape Air Base","lat":23.980437,"lon":35.460277},{"type":"large_airport","name":"Lennart Meri Tallinn Airport","lat":59.413246,"lon":24.83264},{"type":"medium_airport","name":"Tartu Airport","lat":58.307438,"lon":26.686473},{"type":"medium_airport","name":"Enontekio Airport","lat":68.3626022339,"lon":23.4242992401},{"type":"medium_airport","name":"Halli Airport","lat":61.856039,"lon":24.786686},{"type":"large_airport","name":"Helsinki Vantaa Airport","lat":60.318363,"lon":24.963341},{"type":"medium_airport","name":"Kitee Airport","lat":62.1661,"lon":30.073601},{"type":"medium_airport","name":"Ivalo Airport","lat":68.6072998047,"lon":27.4053001404},{"type":"medium_airport","name":"Joensuu Airport","lat":62.658815,"lon":29.619398},{"type":"medium_airport","name":"Jyväskylä Airport","lat":62.399502,"lon":25.678301},{"type":"medium_airport","name":"Kauhava Airfield","lat":63.127102,"lon":23.051399},{"type":"medium_airport","name":"Kemi-Tornio Airport","lat":65.7787017822,"lon":24.5820999146},{"type":"medium_airport","name":"Kajaani Airport","lat":64.2855,"lon":27.6924},{"type":"medium_airport","name":"Kauhajoki Airfield","lat":62.463212,"lon":22.390817},{"type":"medium_airport","name":"Kokkola-Pietarsaari Airport","lat":63.721199,"lon":23.143101},{"type":"medium_airport","name":"Kuusamo Airport","lat":65.987602,"lon":29.239401},{"type":"medium_airport","name":"Kittilä Airport","lat":67.7009963989,"lon":24.8467998505},{"type":"medium_airport","name":"Kuopio Airport","lat":63.007099,"lon":27.7978},{"type":"medium_airport","name":"Lappeenranta Airport","lat":61.044601,"lon":28.144743},{"type":"medium_airport","name":"Mariehamn Airport","lat":60.1222,"lon":19.898199},{"type":"medium_airport","name":"Mikkeli Airport","lat":61.6866,"lon":27.201799},{"type":"medium_airport","name":"Oulu Airport","lat":64.930099,"lon":25.354601},{"type":"medium_airport","name":"Pori Airport","lat":61.4617,"lon":21.799999},{"type":"medium_airport","name":"Helsinki East-Redstone Aerodrome","lat":60.479167,"lon":26.593889},{"type":"medium_airport","name":"Rovaniemi Airport","lat":66.5647964478,"lon":25.8304004669},{"type":"medium_airport","name":"Savonlinna Airport","lat":61.9431,"lon":28.945101},{"type":"medium_airport","name":"Seinäjoki Airport","lat":62.692101,"lon":22.8323},{"type":"medium_airport","name":"Sodankyla Airport","lat":67.3949966431,"lon":26.6191005707},{"type":"medium_airport","name":"Tampere-Pirkkala Airport","lat":61.414101,"lon":23.604401},{"type":"medium_airport","name":"Turku Airport","lat":60.514099,"lon":22.2628},{"type":"medium_airport","name":"Utti Air Base","lat":60.8964,"lon":26.9384},{"type":"medium_airport","name":"Vaasa Airport","lat":63.050701,"lon":21.762199},{"type":"medium_airport","name":"Varkaus Airport","lat":62.171101,"lon":27.868601},{"type":"medium_airport","name":"Ylivieska Airfield","lat":64.054722,"lon":24.725278},{"type":"medium_airport","name":"Bilbeis 2 Airfield","lat":30.4206008911,"lon":31.678899765},{"type":"large_airport","name":"Belfast International Airport","lat":54.6575012207,"lon":-6.2158298492},{"type":"medium_airport","name":"Enniskillen\/St Angelo Airport","lat":54.398274,"lon":-7.651179},{"type":"medium_airport","name":"George Best Belfast City Airport","lat":54.618099,"lon":-5.8725},{"type":"medium_airport","name":"City of Derry Airport","lat":55.0428009033,"lon":-7.1611099243},{"type":"large_airport","name":"Birmingham Airport","lat":52.453899,"lon":-1.74803},{"type":"medium_airport","name":"Coventry Airport","lat":52.369701,"lon":-1.47972},{"type":"medium_airport","name":"Gloucestershire Airport","lat":51.8941993713,"lon":-2.1672201157},{"type":"large_airport","name":"Manchester Airport","lat":53.349375,"lon":-2.279521},{"type":"medium_airport","name":"Royal Marines Base Chivenor","lat":51.0872,"lon":-4.15034},{"type":"medium_airport","name":"MoD Boscombe Down","lat":51.152199,"lon":-1.74741},{"type":"medium_airport","name":"RNAS Culdrose","lat":50.086101532,"lon":-5.255710125},{"type":"medium_airport","name":"MOD St Athan","lat":51.405229,"lon":-3.433254},{"type":"medium_airport","name":"RNAS Yeovilton","lat":51.009399,"lon":-2.63882},{"type":"medium_airport","name":"Campbeltown Airport","lat":55.4371986389,"lon":-5.6863899231},{"type":"medium_airport","name":"Eday Airport","lat":59.1906013489,"lon":-2.7722198963},{"type":"medium_airport","name":"Haverfordwest Airport","lat":51.8330993652,"lon":-4.9611101151},{"type":"medium_airport","name":"Cardiff International Airport","lat":51.396702,"lon":-3.34333},{"type":"medium_airport","name":"Swansea Airport","lat":51.601366,"lon":-4.071006},{"type":"medium_airport","name":"Bristol Airport","lat":51.382702,"lon":-2.71909},{"type":"medium_airport","name":"Liverpool John Lennon Airport","lat":53.333599,"lon":-2.84972},{"type":"large_airport","name":"London Luton Airport","lat":51.874699,"lon":-0.368333},{"type":"medium_airport","name":"Bournemouth Airport","lat":50.780483,"lon":-1.839576},{"type":"medium_airport","name":"Southampton Airport","lat":50.950298,"lon":-1.3568},{"type":"medium_airport","name":"Lasham Airfield","lat":51.18744,"lon":-1.031663},{"type":"medium_airport","name":"Cornwall Airport Newquay","lat":50.440601,"lon":-4.99541},{"type":"medium_airport","name":"Alderney Airport","lat":49.706104,"lon":-2.21472},{"type":"medium_airport","name":"Guernsey Airport","lat":49.435001,"lon":-2.60197},{"type":"medium_airport","name":"Jersey Airport","lat":49.207901,"lon":-2.19551},{"type":"medium_airport","name":"Brighton City Airport","lat":50.835602,"lon":-0.297222},{"type":"medium_airport","name":"London Biggin Hill Airport","lat":51.3307991028,"lon":0.0324999988},{"type":"large_airport","name":"London Gatwick Airport","lat":51.148771,"lon":-0.192089},{"type":"medium_airport","name":"London City Airport","lat":51.505299,"lon":0.055278},{"type":"medium_airport","name":"Farnborough Airport","lat":51.275799,"lon":-0.776333},{"type":"medium_airport","name":"Blackbushe Airport","lat":51.323898,"lon":-0.8475},{"type":"large_airport","name":"London Heathrow Airport","lat":51.4706,"lon":-0.461941},{"type":"medium_airport","name":"London Southend Airport","lat":51.570562,"lon":0.693627},{"type":"medium_airport","name":"Lydd London Ashford Airport","lat":50.956246,"lon":0.939074},{"type":"medium_airport","name":"Carlisle Lake District Airport","lat":54.9375,"lon":-2.80917},{"type":"medium_airport","name":"Blackpool Airport","lat":53.771702,"lon":-3.02861},{"type":"medium_airport","name":"Humberside Airport","lat":53.576152,"lon":-0.34954},{"type":"medium_airport","name":"Barrow Walney Island Airport","lat":54.1286111,"lon":-3.2675},{"type":"medium_airport","name":"Leeds Bradford Airport","lat":53.865898,"lon":-1.66057},{"type":"medium_airport","name":"Warton Aerodrome","lat":53.745098,"lon":-2.88306},{"type":"medium_airport","name":"Hawarden Airport","lat":53.178101,"lon":-2.97778},{"type":"medium_airport","name":"Isle of Man Airport","lat":54.083302,"lon":-4.62389},{"type":"medium_airport","name":"Newcastle International Airport","lat":55.037958,"lon":-1.689577},{"type":"medium_airport","name":"Teesside International Airport","lat":54.509201,"lon":-1.42941},{"type":"medium_airport","name":"East Midlands Airport","lat":52.8311,"lon":-1.32806},{"type":"medium_airport","name":"RAF Spadeadam","lat":55.0499992371,"lon":-2.5499999523},{"type":"medium_airport","name":"RAF Shawbury","lat":52.798199,"lon":-2.66804},{"type":"medium_airport","name":"Anglesey Airport","lat":53.2481,"lon":-4.53534},{"type":"medium_airport","name":"Kirkwall Airport","lat":58.9578018188,"lon":-2.9049999714},{"type":"medium_airport","name":"Sumburgh Airport","lat":59.878899,"lon":-1.29556},{"type":"medium_airport","name":"Wick John O'Groats Airport","lat":58.4589,"lon":-3.09306},{"type":"medium_airport","name":"Aberdeen International Airport","lat":57.2019,"lon":-2.19778},{"type":"medium_airport","name":"Inverness Airport","lat":57.5424995422,"lon":-4.0475001335},{"type":"large_airport","name":"Glasgow Airport","lat":55.871899,"lon":-4.43306},{"type":"large_airport","name":"Edinburgh Airport","lat":55.950145,"lon":-3.372288},{"type":"medium_airport","name":"Islay Airport","lat":55.682708,"lon":-6.257525},{"type":"medium_airport","name":"Glasgow Prestwick Airport","lat":55.502003,"lon":-4.587019},{"type":"medium_airport","name":"Benbecula Airport","lat":57.481098175,"lon":-7.3627800941},{"type":"medium_airport","name":"Dundee Airport","lat":56.4524993896,"lon":-3.0258300304},{"type":"medium_airport","name":"Stornoway Airport","lat":58.215599,"lon":-6.33111},{"type":"medium_airport","name":"Barra Airport","lat":57.0228,"lon":-7.44306},{"type":"medium_airport","name":"Tiree Airport","lat":56.4991989136,"lon":-6.8691701889},{"type":"medium_airport","name":"Leuchars Station Airfield","lat":56.37398,"lon":-2.868862},{"type":"medium_airport","name":"RAF Lossiemouth","lat":57.7052001953,"lon":-3.3391699791},{"type":"medium_airport","name":"Cambridge City Airport","lat":52.205002,"lon":175.0},{"type":"medium_airport","name":"Norwich Airport","lat":52.6758,"lon":1.28278},{"type":"large_airport","name":"London Stansted Airport","lat":51.884998,"lon":235.0},{"type":"medium_airport","name":"Cranfield Airport","lat":52.072201,"lon":-0.616667},{"type":"medium_airport","name":"Exeter International Airport","lat":50.734261,"lon":-3.413984},{"type":"medium_airport","name":"London Oxford Airport","lat":51.836899,"lon":-1.32},{"type":"medium_airport","name":"RAF Benson","lat":51.614366,"lon":-1.095991},{"type":"medium_airport","name":"RAF Lakenheath","lat":52.40954,"lon":0.561161},{"type":"medium_airport","name":"RAF Mildenhall","lat":52.3619,"lon":0.486406},{"type":"medium_airport","name":"Wattisham Airfield","lat":52.127451,"lon":0.956189},{"type":"medium_airport","name":"RAF Fairford","lat":51.683568,"lon":-1.789172},{"type":"medium_airport","name":"RAF Brize Norton","lat":51.75,"lon":-1.58362},{"type":"medium_airport","name":"RAF Odiham","lat":51.2341,"lon":-0.942825},{"type":"medium_airport","name":"RAF Cosford","lat":52.639999,"lon":-2.30558},{"type":"medium_airport","name":"RAF Northolt","lat":51.553001,"lon":-0.418167},{"type":"medium_airport","name":"RAF Coningsby","lat":53.092999,"lon":-0.166014},{"type":"medium_airport","name":"RAF Leeming","lat":54.297191,"lon":-1.538944},{"type":"medium_airport","name":"Leeds East Airport","lat":53.834747,"lon":-1.194678},{"type":"medium_airport","name":"RAF Honington","lat":52.342602,"lon":0.772939},{"type":"medium_airport","name":"RAF Wittering","lat":52.612598,"lon":-0.476453},{"type":"medium_airport","name":"RAF Waddington","lat":53.166199,"lon":-0.523811},{"type":"medium_airport","name":"RAF Topcliffe","lat":54.204116,"lon":-1.380265},{"type":"medium_airport","name":"RAF Cranwell","lat":53.0303,"lon":-0.483242},{"type":"medium_airport","name":"RAF Barkston Heath","lat":52.960616,"lon":-0.559428},{"type":"medium_airport","name":"RAF Marham","lat":52.648395,"lon":0.550692},{"type":"medium_airport","name":"Mount Pleasant Airport","lat":-51.8227996826,"lon":-58.4472007751},{"type":"large_airport","name":"Amsterdam Airport Schiphol","lat":52.308601,"lon":4.76389},{"type":"medium_airport","name":"Kempen Airport Budel","lat":51.255299,"lon":5.60139},{"type":"medium_airport","name":"Maastricht Aachen Airport","lat":50.911701,"lon":5.77014},{"type":"medium_airport","name":"Deelen Air Base","lat":52.0606,"lon":5.87306},{"type":"large_airport","name":"Eindhoven Airport","lat":51.4500999451,"lon":5.3745298386},{"type":"medium_airport","name":"Groningen Airport Eelde","lat":53.119701,"lon":6.57944},{"type":"medium_airport","name":"Gilze Rijen Air Base","lat":51.567402,"lon":4.93183},{"type":"medium_airport","name":"De Kooy Airfield \/ Den Helder Naval Air Station","lat":52.923401,"lon":4.78062},{"type":"medium_airport","name":"Lelystad Airport","lat":52.453188,"lon":5.514622},{"type":"medium_airport","name":"Leeuwarden Air Base","lat":53.2285995483,"lon":5.7605600357},{"type":"medium_airport","name":"Rotterdam The Hague Airport","lat":51.956902,"lon":4.43722},{"type":"medium_airport","name":"Twente Airport","lat":52.275833,"lon":6.889167},{"type":"medium_airport","name":"Volkel Air Base","lat":51.657222,"lon":5.707778},{"type":"medium_airport","name":"Woensdrecht Air Base","lat":51.4491,"lon":4.34203},{"type":"medium_airport","name":"Cork Airport","lat":51.841301,"lon":-8.49111},{"type":"medium_airport","name":"Galway Airport","lat":53.300201,"lon":-8.94159},{"type":"medium_airport","name":"Donegal Airport","lat":55.0442008972,"lon":-8.3409996033},{"type":"large_airport","name":"Dublin Airport","lat":53.428713,"lon":-6.262121},{"type":"medium_airport","name":"Ireland West Knock Airport","lat":53.910301,"lon":-8.81849},{"type":"medium_airport","name":"Kerry Airport","lat":52.180901,"lon":-9.52378},{"type":"medium_airport","name":"Casement Air Base","lat":53.301700592,"lon":-6.4513301849},{"type":"large_airport","name":"Shannon Airport","lat":52.702,"lon":-8.92482},{"type":"medium_airport","name":"Sligo Airport","lat":54.2802009583,"lon":-8.5992097855},{"type":"medium_airport","name":"Waterford Airport","lat":52.187199,"lon":-7.08696},{"type":"medium_airport","name":"Weston Airport","lat":53.351622,"lon":-6.490357},{"type":"medium_airport","name":"Aarhus Airport","lat":56.303331,"lon":10.618286},{"type":"large_airport","name":"Billund Airport","lat":55.740335,"lon":9.157019},{"type":"large_airport","name":"Copenhagen Kastrup Airport","lat":55.6179008484,"lon":12.6560001373},{"type":"medium_airport","name":"Esbjerg Airport","lat":55.525902,"lon":8.5534},{"type":"medium_airport","name":"Midtjyllands Airport \/ Air Base Karup","lat":56.297139,"lon":9.104311},{"type":"medium_airport","name":"Lolland Falster Maribo Airport","lat":54.699447,"lon":11.438163},{"type":"medium_airport","name":"Odense Hans Christian Andersen Airport","lat":55.475307,"lon":10.327206},{"type":"medium_airport","name":"Copenhagen Roskilde Airport","lat":55.585602,"lon":12.1314},{"type":"medium_airport","name":"Bornholm Airport","lat":55.063301,"lon":14.7596},{"type":"medium_airport","name":"Sønderborg Airport","lat":54.9644012451,"lon":9.7917299271},{"type":"medium_airport","name":"Sindal Airport","lat":57.503502,"lon":10.2294},{"type":"medium_airport","name":"Skrydstrup Air Base","lat":55.221048,"lon":9.26702},{"type":"medium_airport","name":"Skive Airport","lat":56.550201,"lon":9.17298},{"type":"medium_airport","name":"Thisted Airport","lat":57.068802,"lon":8.70522},{"type":"medium_airport","name":"Kolding Vamdrup Airfield","lat":55.436298,"lon":9.33092},{"type":"medium_airport","name":"Vágar Airport","lat":62.063256,"lon":-7.275782},{"type":"medium_airport","name":"Stauning Vestjylland  Airport","lat":55.990101,"lon":8.35391},{"type":"medium_airport","name":"Aalborg Airport","lat":57.094763,"lon":9.84993},{"type":"large_airport","name":"Luxembourg-Findel International Airport","lat":49.6233333,"lon":6.2044444},{"type":"medium_airport","name":"Ålesund Airport, Vigra","lat":62.5625,"lon":6.1197},{"type":"medium_airport","name":"Andøya Airport, Andenes","lat":69.292503,"lon":16.144199},{"type":"medium_airport","name":"Alta Airport","lat":69.976097,"lon":23.3717},{"type":"medium_airport","name":"Brønnøysund Airport, Brønnøy","lat":65.461098,"lon":12.2175},{"type":"medium_airport","name":"Bodø Airport","lat":67.269203,"lon":14.3653},{"type":"large_airport","name":"Bergen Airport, Flesland","lat":60.2934,"lon":5.21814},{"type":"medium_airport","name":"Båtsfjord Airport","lat":70.60025,"lon":29.692612},{"type":"medium_airport","name":"Berlevåg Airport","lat":70.871517,"lon":29.034097},{"type":"medium_airport","name":"Kristiansand Airport, Kjevik","lat":58.204201,"lon":8.08537},{"type":"medium_airport","name":"Bardufoss Airport","lat":69.055801,"lon":18.5404},{"type":"medium_airport","name":"Harstad\/Narvik Airport, Evenes","lat":68.4913024902,"lon":16.6781005859},{"type":"medium_airport","name":"Florø Airport","lat":61.5835990906,"lon":5.024720192},{"type":"large_airport","name":"Oslo Airport, Gardermoen","lat":60.193901,"lon":11.1004},{"type":"medium_airport","name":"Haugesund Airport, Karmøy","lat":59.345299,"lon":5.20836},{"type":"medium_airport","name":"Hammerfest Airport","lat":70.679703,"lon":23.6686},{"type":"medium_airport","name":"Honningsvåg Airport, Valan","lat":71.009697,"lon":25.983601},{"type":"medium_airport","name":"Kristiansund Airport, Kvernberget","lat":63.111801,"lon":7.82452},{"type":"medium_airport","name":"Kirkenes Airport, Høybuktmoen","lat":69.7258,"lon":29.8913},{"type":"medium_airport","name":"Leknes Airport","lat":68.1524963379,"lon":13.6093997955},{"type":"medium_airport","name":"Mehamn Airport","lat":71.029701,"lon":27.8267},{"type":"medium_airport","name":"Molde Airport, Årø","lat":62.744701,"lon":7.2625},{"type":"medium_airport","name":"Mosjøen Airport, Kjærstad","lat":65.783997,"lon":13.2149},{"type":"medium_airport","name":"Lakselv Airport, Banak","lat":70.068802,"lon":24.973499},{"type":"medium_airport","name":"Notodden Airport","lat":59.565071,"lon":9.213152},{"type":"medium_airport","name":"Ørland Airport","lat":63.6988983154,"lon":9.6040000916},{"type":"medium_airport","name":"Ørsta-Volda Airport, Hovden","lat":62.1800003052,"lon":6.0741000175},{"type":"medium_airport","name":"Mo i Rana Airport, Røssvoll","lat":66.363899231,"lon":14.3014001846},{"type":"medium_airport","name":"Rørvik Airport, Ryum","lat":64.8383026123,"lon":11.1461000442},{"type":"medium_airport","name":"Røros Airport","lat":62.5783996582,"lon":11.342300415},{"type":"medium_airport","name":"Moss Airport, Rygge","lat":59.378817,"lon":10.785439},{"type":"medium_airport","name":"Svalbard Airport, Longyear","lat":78.2461013794,"lon":15.4656000137},{"type":"medium_airport","name":"Svolvær Airport, Helle","lat":68.243301,"lon":14.6692},{"type":"medium_airport","name":"Stokmarknes Airport, Skagen","lat":68.578827,"lon":15.033417},{"type":"medium_airport","name":"Skien Airport","lat":59.185001,"lon":9.56694},{"type":"medium_airport","name":"Stord Airport, Sørstokken","lat":59.791901,"lon":5.34085},{"type":"medium_airport","name":"Sørkjosen Airport","lat":69.786797,"lon":20.9594},{"type":"medium_airport","name":"Vardø Airport, Svartnes","lat":70.3554,"lon":31.044901},{"type":"medium_airport","name":"Sandnessjøen Airport, Stokka","lat":65.956802,"lon":12.4689},{"type":"large_airport","name":"Tromsø Airport, Langnes","lat":69.683296,"lon":18.9189},{"type":"medium_airport","name":"Sandefjord Airport, Torp","lat":59.186699,"lon":10.2586},{"type":"large_airport","name":"Trondheim Airport, Værnes","lat":63.457802,"lon":10.924},{"type":"medium_airport","name":"Vadsø Airport","lat":70.0653,"lon":29.8447},{"type":"large_airport","name":"Stavanger Airport, Sola","lat":58.876701,"lon":5.63778},{"type":"medium_airport","name":"Bydgoszcz Ignacy Jan Paderewski Airport","lat":53.096802,"lon":17.977699},{"type":"medium_airport","name":"Cewice Naval Air Base","lat":54.416525,"lon":17.765734},{"type":"medium_airport","name":"Deblin Military Air Base","lat":51.551021,"lon":21.892322},{"type":"large_airport","name":"Gdańsk Lech Wałęsa Airport","lat":54.377602,"lon":18.4662},{"type":"medium_airport","name":"Inowroclaw Military Air Base","lat":52.8293991089,"lon":18.3306007385},{"type":"large_airport","name":"Kraków John Paul II International Airport","lat":50.077702,"lon":19.7848},{"type":"medium_airport","name":"Krzesiny Military Air Base","lat":52.331699,"lon":16.9664},{"type":"medium_airport","name":"Katowice Wojciech Korfanty International Airport","lat":50.476015,"lon":19.080705},{"type":"medium_airport","name":"Lublin Airport","lat":51.240157,"lon":22.713461},{"type":"medium_airport","name":"Łask Air Base","lat":51.551701,"lon":19.1791},{"type":"medium_airport","name":"Łódź Władysław Reymont Airport","lat":51.721901,"lon":19.3981},{"type":"medium_airport","name":"Leźnica Wielka Air Base","lat":52.004945,"lon":19.143792},{"type":"medium_airport","name":"Malbork Królewo Air Base","lat":54.026598,"lon":19.135718},{"type":"medium_airport","name":"Miroslawiec Military Air Base","lat":53.3951,"lon":16.0828},{"type":"medium_airport","name":"Minsk Mazowiecki Military Air Base","lat":52.1954994202,"lon":21.6558990479},{"type":"medium_airport","name":"Modlin Airport","lat":52.451099,"lon":20.6518},{"type":"medium_airport","name":"Poznań-Ławica Airport","lat":52.421598,"lon":16.823359},{"type":"medium_airport","name":"Powidz Military Air Base","lat":52.380087,"lon":17.853155},{"type":"medium_airport","name":"Warsaw Radom Airport","lat":51.38937,"lon":21.214742},{"type":"medium_airport","name":"Rzeszów-Jasionka Airport","lat":50.109791,"lon":22.024155},{"type":"medium_airport","name":"Solidarity Szczecin–Goleniów Airport","lat":53.584702,"lon":14.9022},{"type":"medium_airport","name":"Swidwin Military Air Base","lat":53.7906,"lon":15.8263},{"type":"medium_airport","name":"Olsztyn-Mazury Airport","lat":53.481899,"lon":20.9377},{"type":"medium_airport","name":"Tomaszów Mazowiecki Military Air Base","lat":51.5844,"lon":20.097799},{"type":"large_airport","name":"Warsaw Chopin Airport","lat":52.165699,"lon":20.9671},{"type":"medium_airport","name":"Copernicus Wrocław Airport","lat":51.103719,"lon":16.882096},{"type":"medium_airport","name":"Zielona Góra-Babimost Airport","lat":52.1385,"lon":15.7986},{"type":"medium_airport","name":"Folgueroles Airfield","lat":41.9527,"lon":2.3072},{"type":"medium_airport","name":"Malmen Air Base","lat":58.397666,"lon":15.522422},{"type":"medium_airport","name":"Ronneby Airport","lat":56.266701,"lon":15.265},{"type":"medium_airport","name":"Råda Air Base","lat":58.4981,"lon":13.0532},{"type":"large_airport","name":"Göteborg Landvetter Airport","lat":57.6628,"lon":12.2798},{"type":"medium_airport","name":"Jönköping Airport","lat":57.757598877,"lon":14.0686998367},{"type":"medium_airport","name":"Säve Airport","lat":57.7747,"lon":11.8704},{"type":"medium_airport","name":"Skövde Airport","lat":58.456402,"lon":13.9727},{"type":"medium_airport","name":"Trollhättan-Vänersborg Airport","lat":58.3180999756,"lon":12.345000267},{"type":"medium_airport","name":"Såtenäs Air Base","lat":58.426399,"lon":12.7144},{"type":"medium_airport","name":"Karlskoga Airport","lat":59.345901,"lon":14.4959},{"type":"medium_airport","name":"Mora Airport","lat":60.957901,"lon":14.5114},{"type":"medium_airport","name":"Stockholm Skavsta Airport","lat":58.788601,"lon":16.912201},{"type":"medium_airport","name":"Scandinavian Mountains Airport","lat":61.158393,"lon":12.842503},{"type":"medium_airport","name":"Kristianstad Airport","lat":55.9217,"lon":14.0855},{"type":"medium_airport","name":"Kalmar Airport","lat":56.685501,"lon":16.2876},{"type":"medium_airport","name":"Malmö Sturup Airport","lat":55.535564,"lon":13.376327},{"type":"medium_airport","name":"Halmstad Airport","lat":56.6911010742,"lon":12.8201999664},{"type":"medium_airport","name":"Växjö Kronoberg Airport","lat":56.9291000366,"lon":14.7279996872},{"type":"medium_airport","name":"Gällivare Airport","lat":67.1324005127,"lon":20.8145999908},{"type":"medium_airport","name":"Kramfors-Sollefteå Höga Kusten Airport","lat":63.048599,"lon":17.7689},{"type":"medium_airport","name":"Lycksele Airport","lat":64.548302,"lon":18.7162},{"type":"medium_airport","name":"Sundsvall-Härnösand Airport","lat":62.5280990601,"lon":17.4438991547},{"type":"medium_airport","name":"Örnsköldsvik Airport","lat":63.4082984924,"lon":18.9899997711},{"type":"medium_airport","name":"Kiruna Airport","lat":67.8219985962,"lon":20.3367996216},{"type":"medium_airport","name":"Skellefteå Airport","lat":64.6248016357,"lon":21.0769004822},{"type":"medium_airport","name":"Umeå Airport","lat":63.7918014526,"lon":20.2828006744},{"type":"medium_airport","name":"Vilhelmina South Lapland Airport","lat":64.579102,"lon":16.833599},{"type":"medium_airport","name":"Arvidsjaur Airport","lat":65.5903015137,"lon":19.2819004059},{"type":"medium_airport","name":"Söderhamn Airport","lat":61.261501,"lon":17.0991},{"type":"medium_airport","name":"Åre Östersund Airport","lat":63.194135,"lon":14.500322},{"type":"medium_airport","name":"Örebro Airport","lat":59.2237014771,"lon":15.0380001068},{"type":"medium_airport","name":"Karlstad Airport","lat":59.444698,"lon":13.3374},{"type":"medium_airport","name":"Stockholm Västerås Airport","lat":59.5894012451,"lon":16.633600235},{"type":"medium_airport","name":"Luleå Airport","lat":65.5438,"lon":22.122},{"type":"large_airport","name":"Stockholm-Arlanda Airport","lat":59.64849,"lon":17.928829},{"type":"medium_airport","name":"Stockholm-Bromma Airport","lat":59.3544006348,"lon":17.9416999817},{"type":"medium_airport","name":"Dala Airport","lat":60.422001,"lon":15.5152},{"type":"medium_airport","name":"Gävle Sandviken Airport","lat":60.5933,"lon":16.951401},{"type":"medium_airport","name":"Linköping City Airport","lat":58.4062004089,"lon":15.6805000305},{"type":"medium_airport","name":"Norrköping Airport","lat":58.5862998962,"lon":16.2506008148},{"type":"medium_airport","name":"Torsby Airport","lat":60.1576,"lon":12.9913},{"type":"medium_airport","name":"Eskilstuna Airport","lat":59.351101,"lon":16.708401},{"type":"medium_airport","name":"Visby Airport","lat":57.6627998352,"lon":18.346200943},{"type":"medium_airport","name":"Ängelholm-Helsingborg Airport","lat":56.2961006165,"lon":12.8471002579},{"type":"medium_airport","name":"Ljungbyhed Airfield","lat":56.082802,"lon":13.2125},{"type":"medium_airport","name":"Storuman Airport","lat":64.960899,"lon":17.6966},{"type":"medium_airport","name":"Spangdahlem Air Base","lat":49.976507,"lon":6.698413},{"type":"medium_airport","name":"Ramstein Air Base","lat":49.436901,"lon":7.60028},{"type":"medium_airport","name":"Bückeburg Air Base","lat":52.2785,"lon":9.08217},{"type":"medium_airport","name":"Celle Army Airfield","lat":52.591202,"lon":10.0221},{"type":"medium_airport","name":"Fritzlar Army Airfield","lat":51.1146,"lon":9.286},{"type":"medium_airport","name":"Laupheim Air Base","lat":48.220299,"lon":9.91002},{"type":"medium_airport","name":"Niederstetten Army Air Base","lat":49.39162,"lon":9.956747},{"type":"medium_airport","name":"Faßberg Air Base","lat":52.919399,"lon":10.185827},{"type":"medium_airport","name":"Grafenwöhr Army Air Field","lat":49.6987,"lon":11.9402},{"type":"medium_airport","name":"Hohenfels Army Airfield","lat":49.216541,"lon":11.836064},{"type":"medium_airport","name":"Sea-Airport Cuxhaven\/Nordholz \/ Nordholz Naval Airbase","lat":53.767689,"lon":8.659201},{"type":"medium_airport","name":"Diepholz Air Base","lat":52.585556,"lon":8.342222},{"type":"medium_airport","name":"Geilenkirchen Air Base","lat":50.9608,"lon":6.04242},{"type":"medium_airport","name":"Hohn Air Base","lat":54.312199,"lon":9.53817},{"type":"medium_airport","name":"Rostock-Laage Airport","lat":53.918201,"lon":12.2783},{"type":"medium_airport","name":"Nörvenich Air Base","lat":50.8312,"lon":6.65817},{"type":"medium_airport","name":"Schleswig Air Base","lat":54.459301,"lon":9.51633},{"type":"medium_airport","name":"Wittmundhafen Air Base","lat":53.547798,"lon":7.66733},{"type":"medium_airport","name":"Wunstorf Air Base","lat":52.457298,"lon":9.42717},{"type":"medium_airport","name":"Wiesbaden Army Airfield","lat":50.0498008728,"lon":8.3254003525},{"type":"medium_airport","name":"Büchel Air Base","lat":50.173801,"lon":7.06333},{"type":"medium_airport","name":"Holzdorf Air Base","lat":51.767799,"lon":13.1677},{"type":"medium_airport","name":"Ingolstadt Manching Airport","lat":48.7156982422,"lon":11.5340003967},{"type":"medium_airport","name":"Lechfeld Air Base","lat":48.185504,"lon":10.8612},{"type":"medium_airport","name":"Neuburg Air Base","lat":48.710999,"lon":11.2115},{"type":"medium_airport","name":"Jēkabpils Air Base","lat":56.534698,"lon":25.8925},{"type":"large_airport","name":"Liepāja International Airport","lat":56.517502,"lon":21.096901},{"type":"large_airport","name":"Riga International Airport","lat":56.920752,"lon":23.970711},{"type":"medium_airport","name":"Jūrmala Airport","lat":56.9422,"lon":23.2239},{"type":"medium_airport","name":"Kaunas International Airport","lat":54.9639015198,"lon":24.0848007202},{"type":"medium_airport","name":"Kėdainiai Air Base","lat":55.3116989136,"lon":23.9563999176},{"type":"medium_airport","name":"Palanga International Airport","lat":55.9732017517,"lon":21.0939006805},{"type":"medium_airport","name":"Panevėžys Air Base","lat":55.7294006348,"lon":24.4608001709},{"type":"medium_airport","name":"Šiauliai International Airport","lat":55.893901825,"lon":23.3950004578},{"type":"medium_airport","name":"Barysiai Airfield","lat":56.070599,"lon":23.5581},{"type":"large_airport","name":"Vilnius International Airport","lat":54.634102,"lon":25.285801},{"type":"medium_airport","name":"Alexander Bay Airport","lat":-28.575001,"lon":16.5333},{"type":"medium_airport","name":"Aggeneys Airport","lat":-29.281799,"lon":18.8139},{"type":"medium_airport","name":"Bisho Airport","lat":-32.897099,"lon":27.2791},{"type":"medium_airport","name":"Bram Fischer International Airport","lat":-29.092699,"lon":26.302401},{"type":"medium_airport","name":"Barberton Airport","lat":-25.717147,"lon":30.974974},{"type":"large_airport","name":"Cape Town International Airport","lat":-33.9648017883,"lon":18.6016998291},{"type":"medium_airport","name":"King Phalo Airport","lat":-33.035599,"lon":27.825899},{"type":"medium_airport","name":"Ermelo Airport","lat":-26.4956,"lon":29.979799},{"type":"medium_airport","name":"Ficksburg Sentraoes Airport","lat":-28.8230991364,"lon":27.9088993073},{"type":"medium_airport","name":"Grand Central Airport","lat":-25.9862995148,"lon":28.1401004791},{"type":"medium_airport","name":"George Airport","lat":-34.0056,"lon":22.378902},{"type":"medium_airport","name":"Rand Airport","lat":-26.2425,"lon":28.151199},{"type":"medium_airport","name":"Harrismith Airport","lat":-28.2351,"lon":29.106199},{"type":"medium_airport","name":"P C Pelser Airport","lat":-26.871099,"lon":26.718},{"type":"medium_airport","name":"Kimberley Airport","lat":-28.8027992249,"lon":24.7651996613},{"type":"medium_airport","name":"Kruger Mpumalanga International Airport","lat":-25.3831996918,"lon":31.1056003571},{"type":"medium_airport","name":"Johan Pienaar Airport","lat":-27.4566993713,"lon":23.4113998413},{"type":"medium_airport","name":"Kleinsee Airport","lat":-29.6884002686,"lon":17.0939998627},{"type":"medium_airport","name":"Lanseria International Airport","lat":-25.938499,"lon":27.9261},{"type":"medium_airport","name":"Lime Acres Finsch Mine Airport","lat":-28.3600997925,"lon":23.4391002655},{"type":"large_airport","name":"King Shaka International Airport","lat":-29.6144444444,"lon":31.1197222222},{"type":"medium_airport","name":"Langebaanweg Airport","lat":-32.9688987732,"lon":18.1602993011},{"type":"medium_airport","name":"Ladysmith Airport","lat":-28.5816993713,"lon":29.7497005463},{"type":"medium_airport","name":"Malamala Airport","lat":-24.816866,"lon":31.544085},{"type":"medium_airport","name":"Margate Airport","lat":-30.8574008942,"lon":30.343000412},{"type":"medium_airport","name":"Mmabatho International Airport","lat":-25.7984008789,"lon":25.5480003357},{"type":"medium_airport","name":"Morningside Farm Airport","lat":-25.7045001984,"lon":26.9090003967},{"type":"medium_airport","name":"Mkuze Airport","lat":-27.6261005402,"lon":32.0443000793},{"type":"medium_airport","name":"Newcastle Airport","lat":-27.7705993652,"lon":29.9769001007},{"type":"medium_airport","name":"Oudtshoorn Airport","lat":-33.6069984436,"lon":22.188999176},{"type":"large_airport","name":"O.R. Tambo International Airport","lat":-26.1392,"lon":28.246},{"type":"medium_airport","name":"Chief Dawid Stuurman International Airport","lat":-33.984901,"lon":25.6173},{"type":"medium_airport","name":"Plettenberg Bay Airport","lat":-34.08816,"lon":23.328723},{"type":"medium_airport","name":"Hendrik Van Eck Airport","lat":-23.9372005463,"lon":31.1553993225},{"type":"medium_airport","name":"Pietersburg Municipal Airport","lat":-23.9261,"lon":29.4844},{"type":"medium_airport","name":"Port St Johns Airport","lat":-31.60612,"lon":29.52175},{"type":"medium_airport","name":"Pietermaritzburg Airport","lat":-29.6490001678,"lon":30.3987007141},{"type":"medium_airport","name":"Polokwane International Airport","lat":-23.845269,"lon":29.458615},{"type":"medium_airport","name":"Potchefstroom Airport","lat":-26.670999527,"lon":27.0818996429},{"type":"medium_airport","name":"Queenstown Airport","lat":-31.9202003479,"lon":26.8822002411},{"type":"medium_airport","name":"Richards Bay Airport","lat":-28.7409992218,"lon":32.0920982361},{"type":"medium_airport","name":"Rustenburg Airport","lat":-25.6443,"lon":27.271099},{"type":"medium_airport","name":"Robertson Airport","lat":-33.812199,"lon":19.9028},{"type":"medium_airport","name":"Springbok Airport","lat":-29.6893005371,"lon":17.9395999908},{"type":"medium_airport","name":"Secunda Airport","lat":-26.52409935,"lon":29.1700992584},{"type":"medium_airport","name":"Saldanha\/Vredenburg Airport","lat":-32.9641,"lon":17.969299},{"type":"medium_airport","name":"Swartkop Air Force Base","lat":-25.8097,"lon":28.1646},{"type":"medium_airport","name":"Sishen Airport","lat":-27.6486,"lon":22.9993},{"type":"medium_airport","name":"Skukuza Airport","lat":-24.960899353,"lon":31.5886993408},{"type":"medium_airport","name":"Tzaneen Airport","lat":-23.8244,"lon":30.3293},{"type":"medium_airport","name":"Prince Mangosuthu Buthelezi Airport","lat":-28.3206005096,"lon":31.4165000916},{"type":"medium_airport","name":"Pierre Van Ryneveld Airport","lat":-28.39909935,"lon":21.2602005005},{"type":"medium_airport","name":"K. D. Matanzima Airport","lat":-31.5463631849,"lon":28.6733551025},{"type":"medium_airport","name":"Vryburg Airport","lat":-26.9824008942,"lon":24.7287998199},{"type":"medium_airport","name":"Virginia Airport","lat":-29.770599,"lon":31.058399},{"type":"medium_airport","name":"Vredendal Airport","lat":-31.6410007477,"lon":18.5447998047},{"type":"medium_airport","name":"Vereeniging Airport","lat":-26.566401,"lon":27.9608},{"type":"medium_airport","name":"Wonderboom Airport","lat":-25.6539,"lon":28.224199},{"type":"medium_airport","name":"Waterkloof Air Force Base","lat":-25.8299999237,"lon":28.2224998474},{"type":"medium_airport","name":"Ysterplaat Air Force Base","lat":-33.9002,"lon":18.498301},{"type":"medium_airport","name":"P G Matante Intl","lat":-21.15914,"lon":27.468545},{"type":"medium_airport","name":"Jwaneng Airport","lat":-24.602301,"lon":24.691},{"type":"medium_airport","name":"Kasane Airport","lat":-17.832899,"lon":25.162399},{"type":"medium_airport","name":"Maun Airport","lat":-19.970491,"lon":23.431409},{"type":"large_airport","name":"Sir Seretse Khama International Airport","lat":-24.555201,"lon":25.9182},{"type":"medium_airport","name":"Sua Pan Airport","lat":-20.5534,"lon":26.115801},{"type":"medium_airport","name":"Selebi Phikwe Airport","lat":-22.0583,"lon":27.8288},{"type":"medium_airport","name":"Maya-Maya Airport","lat":-4.2516999245,"lon":15.2530002594},{"type":"medium_airport","name":"Oyo Ollombo Airport","lat":-1.226666,"lon":15.91},{"type":"medium_airport","name":"Owando Airport","lat":-0.524566,"lon":15.93782},{"type":"medium_airport","name":"Ouesso Airport","lat":1.61599,"lon":16.037901},{"type":"medium_airport","name":"Ngot Nzoungou Airport","lat":-4.20635,"lon":12.6599},{"type":"medium_airport","name":"Antonio Agostinho-Neto International Airport","lat":-4.81603,"lon":11.8866},{"type":"medium_airport","name":"Matsapha Airport","lat":-26.528999,"lon":31.307501},{"type":"large_airport","name":"King Mswati III International Airport","lat":-26.358611,"lon":31.716944},{"type":"medium_airport","name":"Bangui M'Poko International Airport","lat":4.3984799385,"lon":18.5188007355},{"type":"medium_airport","name":"Berbérati Airport","lat":4.2215800285,"lon":15.7863998413},{"type":"medium_airport","name":"Bata Airport","lat":1.90547,"lon":9.80568},{"type":"medium_airport","name":"Malabo Airport","lat":3.7552700043,"lon":8.7087202072},{"type":"medium_airport","name":"RAF Ascension Island","lat":-7.9696,"lon":-14.3937},{"type":"large_airport","name":"Sir Seewoosagur Ramgoolam International Airport","lat":-20.430201,"lon":57.683601},{"type":"medium_airport","name":"Sir Charles Gaetan Duval Airport","lat":-19.7577,"lon":63.361},{"type":"medium_airport","name":"Diego Garcia Naval Support Facility","lat":-7.31327,"lon":72.411102},{"type":"medium_airport","name":"Tiko Airport","lat":4.0891900063,"lon":9.3605298996},{"type":"medium_airport","name":"Douala International Airport","lat":4.0060801506,"lon":9.7194795609},{"type":"medium_airport","name":"Salak Airport","lat":10.4513998032,"lon":14.257399559},{"type":"medium_airport","name":"Foumban Nkounja Airport","lat":5.63692,"lon":10.7508},{"type":"medium_airport","name":"N'Gaoundéré Airport","lat":7.3570098877,"lon":13.5592002869},{"type":"medium_airport","name":"Garoua International Airport","lat":9.3358898163,"lon":13.3701000214},{"type":"medium_airport","name":"Bafoussam Airport","lat":5.5369200707,"lon":10.3545999527},{"type":"medium_airport","name":"Bamenda Airport","lat":6.03924,"lon":10.1226},{"type":"medium_airport","name":"Yaoundé Airport","lat":3.83604,"lon":11.5235},{"type":"medium_airport","name":"Yaoundé Nsimalen International Airport","lat":3.72256,"lon":11.5533},{"type":"medium_airport","name":"Kasompe Airport","lat":-12.5728,"lon":27.8939},{"type":"medium_airport","name":"Lusaka City Airport","lat":-15.4138,"lon":28.3307},{"type":"medium_airport","name":"Harry Mwanga Nkumbula International Airport","lat":-17.8218,"lon":25.822701},{"type":"large_airport","name":"Kenneth Kaunda International Airport","lat":-15.330833,"lon":28.452722},{"type":"medium_airport","name":"Mfuwe Airport","lat":-13.2588996887,"lon":31.9365997314},{"type":"medium_airport","name":"Mongu Airport","lat":-15.2545,"lon":23.1623},{"type":"medium_airport","name":"Peter Zuze Air Force Base","lat":-12.997222,"lon":28.663889},{"type":"medium_airport","name":"Simon Mwansa Kapwepwe International Airport","lat":-12.961667,"lon":28.516667},{"type":"medium_airport","name":"Southdowns Airport","lat":-12.9005,"lon":28.1499},{"type":"medium_airport","name":"Prince Said Ibrahim International Airport","lat":-11.5337,"lon":43.2719},{"type":"medium_airport","name":"Mohéli Bandar Es Eslam Airport","lat":-12.2981,"lon":43.766399},{"type":"medium_airport","name":"Ouani Airport","lat":-12.131047,"lon":44.430044},{"type":"medium_airport","name":"Dzaoudzi Pamandzi International Airport","lat":-12.809319,"lon":45.281815},{"type":"large_airport","name":"Roland Garros Airport","lat":-20.890087,"lon":55.518894},{"type":"medium_airport","name":"Pierrefonds Airport","lat":-21.319362,"lon":55.422506},{"type":"large_airport","name":"Ivato Airport","lat":-18.7969,"lon":47.478802},{"type":"medium_airport","name":"Miandrivazo Airport","lat":-19.562799,"lon":45.450802},{"type":"medium_airport","name":"Sainte Marie Airport","lat":-17.093901,"lon":49.8158},{"type":"medium_airport","name":"Toamasina Ambalamanasy Airport","lat":-18.109501,"lon":49.392502},{"type":"medium_airport","name":"Morondava Airport","lat":-20.2847,"lon":44.3176},{"type":"medium_airport","name":"Arrachart Airport","lat":-12.3494,"lon":49.291698},{"type":"medium_airport","name":"Mananara Nord Airport","lat":-16.1639,"lon":49.7738},{"type":"medium_airport","name":"Andapa Airport","lat":-14.6517000198,"lon":49.6206016541},{"type":"medium_airport","name":"Antsirabe Airport","lat":-14.9994,"lon":50.320202},{"type":"medium_airport","name":"Analalava Airport","lat":-14.629514,"lon":47.763555},{"type":"medium_airport","name":"Amborovy Airport","lat":-15.666842,"lon":46.351233},{"type":"medium_airport","name":"Fascene Airport","lat":-13.3121,"lon":48.3148},{"type":"medium_airport","name":"Besalampy Airport","lat":-16.74453,"lon":44.482484},{"type":"medium_airport","name":"Maroantsetra Airport","lat":-15.437742,"lon":49.689081},{"type":"medium_airport","name":"Sambava Airport","lat":-14.2786,"lon":50.174702},{"type":"medium_airport","name":"Vohemar Airport","lat":-13.3758,"lon":50.0028},{"type":"medium_airport","name":"Ambalabe Airport","lat":-14.8988,"lon":47.9939},{"type":"medium_airport","name":"Tôlanaro Airport","lat":-25.038099,"lon":46.9561},{"type":"medium_airport","name":"Fianarantsoa Airport","lat":-21.441601,"lon":47.111698},{"type":"medium_airport","name":"Manakara Airport","lat":-22.119699,"lon":48.021702},{"type":"medium_airport","name":"Mananjary Airport","lat":-21.201799,"lon":48.358299},{"type":"medium_airport","name":"Morombe Airport","lat":-21.753837,"lon":43.374753},{"type":"medium_airport","name":"Toliara Airport","lat":-23.3834,"lon":43.7285},{"type":"medium_airport","name":"Mbanza Congo Airport","lat":-6.2698998451,"lon":14.2469997406},{"type":"medium_airport","name":"Benguela Airport","lat":-12.609,"lon":13.4037},{"type":"medium_airport","name":"Dr. Antonio Agostinho Neto International Airport","lat":-9.050734,"lon":13.499078},{"type":"medium_airport","name":"Cabinda Airport","lat":-5.5969901085,"lon":12.1884002686},{"type":"medium_airport","name":"Catumbela Airport","lat":-12.4792,"lon":13.4869},{"type":"medium_airport","name":"Dundo Airport","lat":-7.4008898735,"lon":20.8185005188},{"type":"medium_airport","name":"Ngjiva Pereira Airport","lat":-17.0435009003,"lon":15.6837997437},{"type":"medium_airport","name":"Albano Machado Airport","lat":-12.8089,"lon":15.7605},{"type":"medium_airport","name":"Kuito Airport","lat":-12.4046001434,"lon":16.9473991394},{"type":"large_airport","name":"Quatro de Fevereiro International Airport","lat":-8.85837,"lon":13.2312},{"type":"medium_airport","name":"Malanje Airport","lat":-9.5250902176,"lon":16.3124008179},{"type":"medium_airport","name":"Menongue Airport","lat":-14.6576004028,"lon":17.7198009491},{"type":"medium_airport","name":"Welwitschia Mirabilis International Airport","lat":-15.2612,"lon":12.1468},{"type":"medium_airport","name":"Negage Airport","lat":-7.7545099258,"lon":15.2876996994},{"type":"medium_airport","name":"Porto Amboim Airport","lat":-10.722,"lon":13.7655},{"type":"medium_airport","name":"Saurimo Airport","lat":-9.68907,"lon":20.4319},{"type":"medium_airport","name":"Soyo Airport","lat":-6.1410899162,"lon":12.3718004227},{"type":"medium_airport","name":"Sumbe Airport","lat":-11.1679,"lon":13.8475},{"type":"medium_airport","name":"Lubango Airport","lat":-14.9246997833,"lon":13.5749998093},{"type":"medium_airport","name":"Luena Airport","lat":-11.7681,"lon":19.897699},{"type":"medium_airport","name":"Uige Airport","lat":-7.60307,"lon":15.0278},{"type":"medium_airport","name":"Xangongo Airport","lat":-16.755399704,"lon":14.9652996063},{"type":"medium_airport","name":"Koulamoutou Mabimbi Airport","lat":-1.18461,"lon":12.4413},{"type":"medium_airport","name":"Mouilla Ville Airport","lat":-1.84514,"lon":11.0567},{"type":"medium_airport","name":"Oyem Airport","lat":1.543110013,"lon":11.5813999176},{"type":"medium_airport","name":"Okondja Airport","lat":-0.665214,"lon":13.6731},{"type":"medium_airport","name":"Lambarene Airport","lat":-0.704389,"lon":10.2457},{"type":"medium_airport","name":"Bitam Airport","lat":2.07564,"lon":11.4932},{"type":"medium_airport","name":"Port Gentil Airport","lat":-0.7117390037,"lon":8.7543802261},{"type":"medium_airport","name":"Omboue Hospital Airport","lat":-1.57473,"lon":9.26269},{"type":"medium_airport","name":"Makokou Airport","lat":0.5792109966,"lon":12.8908996582},{"type":"medium_airport","name":"Libreville Leon M'ba International Airport","lat":0.4586000144,"lon":9.4122800827},{"type":"medium_airport","name":"M'Vengue El Hadj Omar Bongo Ondimba International Airport","lat":-1.656159997,"lon":13.4379997253},{"type":"medium_airport","name":"Principe Airport","lat":1.66294,"lon":7.41174},{"type":"large_airport","name":"São Tomé International Airport","lat":0.378175,"lon":6.71215},{"type":"medium_airport","name":"Beira Airport","lat":-19.7964,"lon":34.9076},{"type":"medium_airport","name":"Chimoio Airport","lat":-19.1513004303,"lon":33.4290008545},{"type":"medium_airport","name":"Inhambane Airport","lat":-23.8764,"lon":35.408501},{"type":"medium_airport","name":"Lichinga Airport","lat":-13.274,"lon":35.2663},{"type":"large_airport","name":"Maputo Airport","lat":-25.920799,"lon":32.572601},{"type":"medium_airport","name":"Mueda Airport","lat":-11.6729,"lon":39.563099},{"type":"medium_airport","name":"Mocímboa da Praia Airport","lat":-11.3618,"lon":40.3549},{"type":"medium_airport","name":"Nampula Airport","lat":-15.1056003571,"lon":39.2817993164},{"type":"medium_airport","name":"Pemba Airport","lat":-12.993302,"lon":40.524867},{"type":"medium_airport","name":"Quelimane Airport","lat":-17.8554992676,"lon":36.8690986633},{"type":"medium_airport","name":"Chingozi Airport","lat":-16.1047992706,"lon":33.6402015686},{"type":"medium_airport","name":"Vilankulo Airport","lat":-22.0184001923,"lon":35.3133010864},{"type":"large_airport","name":"Seychelles International Airport","lat":-4.67434,"lon":55.521801},{"type":"medium_airport","name":"Praslin Island Airport","lat":-4.319256,"lon":55.691561},{"type":"medium_airport","name":"Ouadi Doum Air Base","lat":18.52793,"lon":20.188644},{"type":"medium_airport","name":"Abeche Airport","lat":13.847,"lon":20.844299},{"type":"medium_airport","name":"Moundou Airport","lat":8.628503,"lon":16.074241},{"type":"large_airport","name":"N'Djamena International Airport","lat":12.1337,"lon":15.034},{"type":"medium_airport","name":"Faya-Largeau Airport","lat":17.917101,"lon":19.111099},{"type":"medium_airport","name":"Joshua Mqabuko Nkomo International Airport","lat":-20.021254,"lon":28.626296},{"type":"medium_airport","name":"Buffalo Range Airport","lat":-21.008101,"lon":31.5786},{"type":"medium_airport","name":"Victoria Falls International Airport","lat":-18.0958995819,"lon":25.8390007019},{"type":"large_airport","name":"Robert Gabriel Mugabe International Airport","lat":-17.931801,"lon":31.0928},